{
  "type": "FeatureCollection",
  "features": [
    {
      "type": "Feature",
      "geometry": {
        "type": "Point",
        "coordinates": [27.3306, 37.9005]
      },
      "properties": {
        "Name": "Ada wind farm",
        "Phase Name": 2,
        "Capacity (MW)": 12.0,
        "Installation Type": "Onshore",
        "Status": "operating",
        "Start_year": 2021.0,
        "Province": "NULL",
        "Latitude": 37.9005,
        "Longitude": 27.3306
      }
    },
    {
      "type": "Feature",
      "geometry": {
        "type": "Point",
        "coordinates": [30.543, 40.507]
      },
      "properties": {
        "Name": "Adapazari wind farm",
        "Phase Name": "--",
        "Capacity (MW)": 85.0,
        "Installation Type": "Onshore",
        "Status": "operating",
        "Start_year": 2021.0,
        "Province": "Sakarya",
        "Latitude": 40.507,
        "Longitude": 30.543
      }
    },
    {
      "type": "Feature",
      "geometry": {
        "type": "Point",
        "coordinates": [36.6849, 40.1878]
      },
      "properties": {
        "Name": "Ado Akyurt wind farm",
        "Phase Name": "--",
        "Capacity (MW)": 15.0,
        "Installation Type": "Onshore",
        "Status": "operating",
        "Start_year": 2016.0,
        "Province": "Tokat",
        "Latitude": 40.1878,
        "Longitude": 36.6849
      }
    },
    {
      "type": "Feature",
      "geometry": {
        "type": "Point",
        "coordinates": [30.2725, 38.4648]
      },
      "properties": {
        "Name": "Afyon-2 wind farm",
        "Phase Name": "--",
        "Capacity (MW)": 88.0,
        "Installation Type": "Onshore",
        "Status": "cancelled - inferred 4 y",
        "Start_year": "NULL",
        "Province": "Afyonkarahisar",
        "Latitude": 38.4648,
        "Longitude": 30.2725
      }
    },
    {
      "type": "Feature",
      "geometry": {
        "type": "Point",
        "coordinates": [27.8146, 41.6044]
      },
      "properties": {
        "Name": "Air Wind Farm 4",
        "Phase Name": "--",
        "Capacity (MW)": 61.0,
        "Installation Type": "Onshore",
        "Status": "operating",
        "Start_year": 2017.0,
        "Province": "Kırklareli",
        "Latitude": 41.6044,
        "Longitude": 27.8146
      }
    },
    {
      "type": "Feature",
      "geometry": {
        "type": "Point",
        "coordinates": [27.773, 38.9207]
      },
      "properties": {
        "Name": "Ak wind farm",
        "Phase Name": 1,
        "Capacity (MW)": 45.0,
        "Installation Type": "Onshore",
        "Status": "operating",
        "Start_year": 2011.0,
        "Province": "Manisa",
        "Latitude": 38.9207,
        "Longitude": 27.773
      }
    },
    {
      "type": "Feature",
      "geometry": {
        "type": "Point",
        "coordinates": [27.773, 38.9207]
      },
      "properties": {
        "Name": "Ak wind farm",
        "Phase Name": 2,
        "Capacity (MW)": 10.0,
        "Installation Type": "Onshore",
        "Status": "operating",
        "Start_year": 2018.0,
        "Province": "Manisa",
        "Latitude": 38.9207,
        "Longitude": 27.773
      }
    },
    {
      "type": "Feature",
      "geometry": {
        "type": "Point",
        "coordinates": [27.4028, 37.476]
      },
      "properties": {
        "Name": "Akbük (Antik) wind farm",
        "Phase Name": 2,
        "Capacity (MW)": 12.0,
        "Installation Type": "Onshore",
        "Status": "operating",
        "Start_year": 2018.0,
        "Province": "Aydin",
        "Latitude": 37.476,
        "Longitude": 27.4028
      }
    },
    {
      "type": "Feature",
      "geometry": {
        "type": "Point",
        "coordinates": [27.3871, 37.4503]
      },
      "properties": {
        "Name": "Akbük (Ayen) wind farm",
        "Phase Name": 1,
        "Capacity (MW)": 32.0,
        "Installation Type": "Onshore",
        "Status": "operating",
        "Start_year": 2009.0,
        "Province": "Aydin",
        "Latitude": 37.4503,
        "Longitude": 27.3871
      }
    },
    {
      "type": "Feature",
      "geometry": {
        "type": "Point",
        "coordinates": [27.4854, 37.4155]
      },
      "properties": {
        "Name": "Akbük (Ayen) wind farm",
        "Phase Name": 2,
        "Capacity (MW)": 21.0,
        "Installation Type": "Onshore",
        "Status": "operating",
        "Start_year": 2016.0,
        "Province": "Mugla",
        "Latitude": 37.4155,
        "Longitude": 27.4854
      }
    },
    {
      "type": "Feature",
      "geometry": {
        "type": "Point",
        "coordinates": [27.4123, 37.4636]
      },
      "properties": {
        "Name": "Akça wind farm",
        "Phase Name": "--",
        "Capacity (MW)": 22.0,
        "Installation Type": "Onshore",
        "Status": "operating",
        "Start_year": 2020.0,
        "Province": "Izmir",
        "Latitude": 37.4636,
        "Longitude": 27.4123
      }
    },
    {
      "type": "Feature",
      "geometry": {
        "type": "Point",
        "coordinates": [31.6675, 37.5914]
      },
      "properties": {
        "Name": "Akdag wind farm",
        "Phase Name": "--",
        "Capacity (MW)": 24.0,
        "Installation Type": "Onshore",
        "Status": "operating",
        "Start_year": 2018.0,
        "Province": "Konya",
        "Latitude": 37.5914,
        "Longitude": 31.6675
      }
    },
    {
      "type": "Feature",
      "geometry": {
        "type": "Point",
        "coordinates": [36.9744, 40.8555]
      },
      "properties": {
        "Name": "Akkus wind farm",
        "Phase Name": "--",
        "Capacity (MW)": 12.0,
        "Installation Type": "Onshore",
        "Status": "operating",
        "Start_year": 2020.0,
        "Province": "Ordu",
        "Latitude": 40.8555,
        "Longitude": 36.9744
      }
    },
    {
      "type": "Feature",
      "geometry": {
        "type": "Point",
        "coordinates": [35.5419, 38.0028]
      },
      "properties": {
        "Name": "Aksu wind farm",
        "Phase Name": 1,
        "Capacity (MW)": 71.0,
        "Installation Type": "Onshore",
        "Status": "operating",
        "Start_year": 2012.0,
        "Province": "Kayseri",
        "Latitude": 38.0028,
        "Longitude": 35.5419
      }
    },
    {
      "type": "Feature",
      "geometry": {
        "type": "Point",
        "coordinates": [35.5419, 38.0028]
      },
      "properties": {
        "Name": "Aksu wind farm",
        "Phase Name": 2,
        "Capacity (MW)": 10.0,
        "Installation Type": "Onshore",
        "Status": "operating",
        "Start_year": 2019.0,
        "Province": "Kayseri",
        "Latitude": 38.0028,
        "Longitude": 35.5419
      }
    },
    {
      "type": "Feature",
      "geometry": {
        "type": "Point",
        "coordinates": [33.399, 37.0025]
      },
      "properties": {
        "Name": "Akyel wind farm",
        "Phase Name": 1,
        "Capacity (MW)": 43.0,
        "Installation Type": "Onshore",
        "Status": "operating",
        "Start_year": 2020.0,
        "Province": "Konya",
        "Latitude": 37.0025,
        "Longitude": 33.399
      }
    },
    {
      "type": "Feature",
      "geometry": {
        "type": "Point",
        "coordinates": [33.399, 37.0025]
      },
      "properties": {
        "Name": "Akyel wind farm",
        "Phase Name": 2,
        "Capacity (MW)": 11.0,
        "Installation Type": "Onshore",
        "Status": "operating",
        "Start_year": 2020.0,
        "Province": "Konya",
        "Latitude": 37.0025,
        "Longitude": 33.399
      }
    },
    {
      "type": "Feature",
      "geometry": {
        "type": "Point",
        "coordinates": [37.3228, 38.9826]
      },
      "properties": {
        "Name": "Akyurt wind farm",
        "Phase Name": "--",
        "Capacity (MW)": 15.0,
        "Installation Type": "Onshore",
        "Status": "operating",
        "Start_year": 2016.0,
        "Province": "Sivas",
        "Latitude": 38.9826,
        "Longitude": 37.3228
      }
    },
    {
      "type": "Feature",
      "geometry": {
        "type": "Point",
        "coordinates": [26.3455, 38.2838]
      },
      "properties": {
        "Name": "Alaçati wind farm",
        "Phase Name": 2,
        "Capacity (MW)": 16.0,
        "Installation Type": "Onshore",
        "Status": "operating",
        "Start_year": 2016.0,
        "Province": "Izmir",
        "Latitude": 38.2838,
        "Longitude": 26.3455
      }
    },
    {
      "type": "Feature",
      "geometry": {
        "type": "Point",
        "coordinates": [28.4213, 40.3476]
      },
      "properties": {
        "Name": "Alares 2 wind farm",
        "Phase Name": "--",
        "Capacity (MW)": 19.2,
        "Installation Type": "Onshore",
        "Status": "operating",
        "Start_year": "NULL",
        "Province": "NULL",
        "Latitude": 40.3476,
        "Longitude": 28.4213
      }
    },
    {
      "type": "Feature",
      "geometry": {
        "type": "Point",
        "coordinates": [28.5195, 38.3519]
      },
      "properties": {
        "Name": "Alares wind farm",
        "Phase Name": "--",
        "Capacity (MW)": 10.2,
        "Installation Type": "Onshore",
        "Status": "operating",
        "Start_year": "NULL",
        "Province": "Manisa",
        "Latitude": 38.3519,
        "Longitude": 28.5195
      }
    },
    {
      "type": "Feature",
      "geometry": {
        "type": "Point",
        "coordinates": [27.1678, 39.3757]
      },
      "properties": {
        "Name": "Alibey wind farm",
        "Phase Name": 1,
        "Capacity (MW)": 18.0,
        "Installation Type": "Onshore",
        "Status": "operating",
        "Start_year": 2018.0,
        "Province": "Balıkesir",
        "Latitude": 39.3757,
        "Longitude": 27.1678
      }
    },
    {
      "type": "Feature",
      "geometry": {
        "type": "Point",
        "coordinates": [27.1678, 39.3757]
      },
      "properties": {
        "Name": "Alibey wind farm",
        "Phase Name": 2,
        "Capacity (MW)": 12.0,
        "Installation Type": "Onshore",
        "Status": "operating",
        "Start_year": 2018.0,
        "Province": "Balıkesir",
        "Latitude": 39.3757,
        "Longitude": 27.1678
      }
    },
    {
      "type": "Feature",
      "geometry": {
        "type": "Point",
        "coordinates": [36.1132, 40.6415]
      },
      "properties": {
        "Name": "Amasya (Altertif) wind farm",
        "Phase Name": "--",
        "Capacity (MW)": 48.0,
        "Installation Type": "Onshore",
        "Status": "operating",
        "Start_year": 2016.0,
        "Province": "Amasya",
        "Latitude": 40.6415,
        "Longitude": 36.1132
      }
    },
    {
      "type": "Feature",
      "geometry": {
        "type": "Point",
        "coordinates": [35.5594, 40.9283]
      },
      "properties": {
        "Name": "Amasya (Eksim) wind farm",
        "Phase Name": 1,
        "Capacity (MW)": 40.0,
        "Installation Type": "Onshore",
        "Status": "operating",
        "Start_year": 2012.0,
        "Province": "Amasya",
        "Latitude": 40.9283,
        "Longitude": 35.5594
      }
    },
    {
      "type": "Feature",
      "geometry": {
        "type": "Point",
        "coordinates": [35.5594, 40.9283]
      },
      "properties": {
        "Name": "Amasya (Eksim) wind farm",
        "Phase Name": 2,
        "Capacity (MW)": 42.0,
        "Installation Type": "Onshore",
        "Status": "operating",
        "Start_year": 2017.0,
        "Province": "Amasya",
        "Latitude": 40.9283,
        "Longitude": 35.5594
      }
    },
    {
      "type": "Feature",
      "geometry": {
        "type": "Point",
        "coordinates": [34.903, 37.5203]
      },
      "properties": {
        "Name": "Andoz wind farm",
        "Phase Name": "--",
        "Capacity (MW)": 32.0,
        "Installation Type": "Onshore",
        "Status": "operating",
        "Start_year": 2023.0,
        "Province": "Adana",
        "Latitude": 37.5203,
        "Longitude": 34.903
      }
    },
    {
      "type": "Feature",
      "geometry": {
        "type": "Point",
        "coordinates": [38.5126, 38.9753]
      },
      "properties": {
        "Name": "Arapkir wind farm",
        "Phase Name": "--",
        "Capacity (MW)": 12.0,
        "Installation Type": "Onshore",
        "Status": "operating",
        "Start_year": 2019.0,
        "Province": "Malatya",
        "Latitude": 38.9753,
        "Longitude": 38.5126
      }
    },
    {
      "type": "Feature",
      "geometry": {
        "type": "Point",
        "coordinates": [32.7913, 38.153]
      },
      "properties": {
        "Name": "Ardiçli wind farm",
        "Phase Name": "--",
        "Capacity (MW)": 63.0,
        "Installation Type": "Onshore",
        "Status": "operating",
        "Start_year": 2018.0,
        "Province": "Konya",
        "Latitude": 38.153,
        "Longitude": 32.7913
      }
    },
    {
      "type": "Feature",
      "geometry": {
        "type": "Point",
        "coordinates": [38.5851, 38.1146]
      },
      "properties": {
        "Name": "Arikonak wind farm",
        "Phase Name": "--",
        "Capacity (MW)": 22.0,
        "Installation Type": "Onshore",
        "Status": "pre-construction",
        "Start_year": "NULL",
        "Province": "Adiyaman",
        "Latitude": 38.1146,
        "Longitude": 38.5851
      }
    },
    {
      "type": "Feature",
      "geometry": {
        "type": "Point",
        "coordinates": [27.7215, 37.0449]
      },
      "properties": {
        "Name": "Armutçuk wind farm",
        "Phase Name": "--",
        "Capacity (MW)": 84.0,
        "Installation Type": "Onshore",
        "Status": "pre-construction",
        "Start_year": "NULL",
        "Province": "NULL",
        "Latitude": 37.0449,
        "Longitude": 27.7215
      }
    },
    {
      "type": "Feature",
      "geometry": {
        "type": "Point",
        "coordinates": [27.7137, 37.0665]
      },
      "properties": {
        "Name": "Arturna wind farm",
        "Phase Name": 1,
        "Capacity (MW)": 69.0,
        "Installation Type": "Onshore",
        "Status": "pre-construction",
        "Start_year": "NULL",
        "Province": "NULL",
        "Latitude": 37.0665,
        "Longitude": 27.7137
      }
    },
    {
      "type": "Feature",
      "geometry": {
        "type": "Point",
        "coordinates": [27.8373, 37.0626]
      },
      "properties": {
        "Name": "Arturna wind farm",
        "Phase Name": 2,
        "Capacity (MW)": 66.0,
        "Installation Type": "Onshore",
        "Status": "pre-construction",
        "Start_year": "NULL",
        "Province": "NULL",
        "Latitude": 37.0626,
        "Longitude": 27.8373
      }
    },
    {
      "type": "Feature",
      "geometry": {
        "type": "Point",
        "coordinates": [35.5363, 40.9331]
      },
      "properties": {
        "Name": "Arzu wind farm",
        "Phase Name": "--",
        "Capacity (MW)": 11.0,
        "Installation Type": "Onshore",
        "Status": "operating",
        "Start_year": 2018.0,
        "Province": "Amasya",
        "Latitude": 40.9331,
        "Longitude": 35.5363
      }
    },
    {
      "type": "Feature",
      "geometry": {
        "type": "Point",
        "coordinates": [33.5324, 39.5458]
      },
      "properties": {
        "Name": "Atakale wind farm",
        "Phase Name": "--",
        "Capacity (MW)": 38.4,
        "Installation Type": "Onshore",
        "Status": "operating",
        "Start_year": 2021.0,
        "Province": "Kırıkkale",
        "Latitude": 39.5458,
        "Longitude": 33.5324
      }
    },
    {
      "type": "Feature",
      "geometry": {
        "type": "Point",
        "coordinates": [28.2911, 40.3752]
      },
      "properties": {
        "Name": "Atares-1 wind farm",
        "Phase Name": 1,
        "Capacity (MW)": 71.0,
        "Installation Type": "Onshore",
        "Status": "operating",
        "Start_year": "NULL",
        "Province": "NULL",
        "Latitude": 40.3752,
        "Longitude": 28.2911
      }
    },
    {
      "type": "Feature",
      "geometry": {
        "type": "Point",
        "coordinates": [28.4121, 40.3461]
      },
      "properties": {
        "Name": "Atares-2 wind farm",
        "Phase Name": 1,
        "Capacity (MW)": 86.2,
        "Installation Type": "Onshore",
        "Status": "operating",
        "Start_year": "NULL",
        "Province": "NULL",
        "Latitude": 40.3461,
        "Longitude": 28.4121
      }
    },
    {
      "type": "Feature",
      "geometry": {
        "type": "Point",
        "coordinates": [28.4121, 40.3461]
      },
      "properties": {
        "Name": "Atares-2 wind farm",
        "Phase Name": 2,
        "Capacity (MW)": 20.6,
        "Installation Type": "Onshore",
        "Status": "pre-construction",
        "Start_year": "NULL",
        "Province": "NULL",
        "Latitude": 40.3461,
        "Longitude": 28.4121
      }
    },
    {
      "type": "Feature",
      "geometry": {
        "type": "Point",
        "coordinates": [35.5697, 37.9684]
      },
      "properties": {
        "Name": "Atasa wind farm",
        "Phase Name": "--",
        "Capacity (MW)": 24.0,
        "Installation Type": "Onshore",
        "Status": "pre-construction",
        "Start_year": "NULL",
        "Province": "Adana",
        "Latitude": 37.9684,
        "Longitude": 35.5697
      }
    },
    {
      "type": "Feature",
      "geometry": {
        "type": "Point",
        "coordinates": [36.2024, 36.4943]
      },
      "properties": {
        "Name": "Atik wind farm",
        "Phase Name": "--",
        "Capacity (MW)": 18.0,
        "Installation Type": "Onshore",
        "Status": "operating",
        "Start_year": 2014.0,
        "Province": "Hatay",
        "Latitude": 36.4943,
        "Longitude": 36.2024
      }
    },
    {
      "type": "Feature",
      "geometry": {
        "type": "Point",
        "coordinates": [26.6012, 39.7346]
      },
      "properties": {
        "Name": "Ayça wind farm",
        "Phase Name": "--",
        "Capacity (MW)": 44.0,
        "Installation Type": "Onshore",
        "Status": "cancelled - inferred 4 y",
        "Start_year": "NULL",
        "Province": "Çanakkale",
        "Latitude": 39.7346,
        "Longitude": 26.6012
      }
    },
    {
      "type": "Feature",
      "geometry": {
        "type": "Point",
        "coordinates": [28.3898, 41.2696]
      },
      "properties": {
        "Name": "Aydos wind farm",
        "Phase Name": "--",
        "Capacity (MW)": 25.0,
        "Installation Type": "Onshore",
        "Status": "operating",
        "Start_year": "NULL",
        "Province": "Istanbul",
        "Latitude": 41.2696,
        "Longitude": 28.3898
      }
    },
    {
      "type": "Feature",
      "geometry": {
        "type": "Point",
        "coordinates": [27.8826, 40.3537]
      },
      "properties": {
        "Name": "Ayyildiz wind farm",
        "Phase Name": 1,
        "Capacity (MW)": 15.0,
        "Installation Type": "Onshore",
        "Status": "operating",
        "Start_year": 2009.0,
        "Province": "Balıkesir",
        "Latitude": 40.3537,
        "Longitude": 27.8826
      }
    },
    {
      "type": "Feature",
      "geometry": {
        "type": "Point",
        "coordinates": [27.8901, 40.3576]
      },
      "properties": {
        "Name": "Ayyildiz wind farm",
        "Phase Name": 2,
        "Capacity (MW)": 13.0,
        "Installation Type": "Onshore",
        "Status": "operating",
        "Start_year": 2017.0,
        "Province": "Balıkesir",
        "Latitude": 40.3576,
        "Longitude": 27.8901
      }
    },
    {
      "type": "Feature",
      "geometry": {
        "type": "Point",
        "coordinates": [27.4578, 37.558]
      },
      "properties": {
        "Name": "Bafa wind farm",
        "Phase Name": "--",
        "Capacity (MW)": 39.0,
        "Installation Type": "Onshore",
        "Status": "operating",
        "Start_year": 2020.0,
        "Province": "Aydin",
        "Latitude": 37.558,
        "Longitude": 27.4578
      }
    },
    {
      "type": "Feature",
      "geometry": {
        "type": "Point",
        "coordinates": [27.6619, 37.7236]
      },
      "properties": {
        "Name": "Bagarasi wind farm",
        "Phase Name": "--",
        "Capacity (MW)": 48.0,
        "Installation Type": "Onshore",
        "Status": "operating",
        "Start_year": 2015.0,
        "Province": "Izmir",
        "Latitude": 37.7236,
        "Longitude": 27.6619
      }
    },
    {
      "type": "Feature",
      "geometry": {
        "type": "Point",
        "coordinates": [42.8263, 38.313]
      },
      "properties": {
        "Name": "Baglama wind farm",
        "Phase Name": "--",
        "Capacity (MW)": 53.0,
        "Installation Type": "Onshore",
        "Status": "operating",
        "Start_year": "NULL",
        "Province": "Van",
        "Latitude": 38.313,
        "Longitude": 42.8263
      }
    },
    {
      "type": "Feature",
      "geometry": {
        "type": "Point",
        "coordinates": [32.7004, 38.1228]
      },
      "properties": {
        "Name": "Baglar wind farm",
        "Phase Name": 1,
        "Capacity (MW)": 79.0,
        "Installation Type": "Onshore",
        "Status": "operating",
        "Start_year": 2018.0,
        "Province": "Konya",
        "Latitude": 38.1228,
        "Longitude": 32.7004
      }
    },
    {
      "type": "Feature",
      "geometry": {
        "type": "Point",
        "coordinates": [32.7004, 38.1228]
      },
      "properties": {
        "Name": "Baglar wind farm",
        "Phase Name": "3A",
        "Capacity (MW)": 14.0,
        "Installation Type": "Onshore",
        "Status": "operating",
        "Start_year": 2021.0,
        "Province": "Konya",
        "Latitude": 38.1228,
        "Longitude": 32.7004
      }
    },
    {
      "type": "Feature",
      "geometry": {
        "type": "Point",
        "coordinates": [27.6212, 41.1199]
      },
      "properties": {
        "Name": "Balabanli wind farm",
        "Phase Name": 1,
        "Capacity (MW)": 50.6,
        "Installation Type": "Onshore",
        "Status": "operating",
        "Start_year": 2014.0,
        "Province": "Tekirdag",
        "Latitude": 41.1199,
        "Longitude": 27.6212
      }
    },
    {
      "type": "Feature",
      "geometry": {
        "type": "Point",
        "coordinates": [27.6286, 41.1092]
      },
      "properties": {
        "Name": "Balabanli wind farm",
        "Phase Name": 2,
        "Capacity (MW)": 36.0,
        "Installation Type": "Onshore",
        "Status": "operating",
        "Start_year": 2016.0,
        "Province": "Tekirdag",
        "Latitude": 41.1092,
        "Longitude": 27.6286
      }
    },
    {
      "type": "Feature",
      "geometry": {
        "type": "Point",
        "coordinates": [28.0556, 39.7606]
      },
      "properties": {
        "Name": "Balikesir wind farm",
        "Phase Name": "--",
        "Capacity (MW)": 143.0,
        "Installation Type": "Onshore",
        "Status": "operating",
        "Start_year": 2012.0,
        "Province": "Balıkesir",
        "Latitude": 39.7606,
        "Longitude": 28.0556
      }
    },
    {
      "type": "Feature",
      "geometry": {
        "type": "Point",
        "coordinates": [27.8958, 41.6476]
      },
      "properties": {
        "Name": "Balkaya wind farm",
        "Phase Name": "--",
        "Capacity (MW)": 260.0,
        "Installation Type": "Onshore",
        "Status": "pre-construction",
        "Start_year": 2026.0,
        "Province": "Kırklareli",
        "Latitude": 41.6476,
        "Longitude": 27.8958
      }
    },
    {
      "type": "Feature",
      "geometry": {
        "type": "Point",
        "coordinates": [28.0969, 40.369]
      },
      "properties": {
        "Name": "Bandirma (Bilgin) wind farm",
        "Phase Name": 2,
        "Capacity (MW)": 30.0,
        "Installation Type": "Onshore",
        "Status": "operating",
        "Start_year": 2006.0,
        "Province": "Balıkesir",
        "Latitude": 40.369,
        "Longitude": 28.0969
      }
    },
    {
      "type": "Feature",
      "geometry": {
        "type": "Point",
        "coordinates": [28.0969, 40.369]
      },
      "properties": {
        "Name": "Bandirma (Bilgin) wind farm",
        "Phase Name": 3,
        "Capacity (MW)": 16.0,
        "Installation Type": "Onshore",
        "Status": "operating",
        "Start_year": 2015.0,
        "Province": "Balıkesir",
        "Latitude": 40.369,
        "Longitude": 28.0969
      }
    },
    {
      "type": "Feature",
      "geometry": {
        "type": "Point",
        "coordinates": [28.1475, 40.3673]
      },
      "properties": {
        "Name": "Bandirma (Borusan) wind farm",
        "Phase Name": 2,
        "Capacity (MW)": 28.0,
        "Installation Type": "Onshore",
        "Status": "operating",
        "Start_year": 2014.0,
        "Province": "Balıkesir",
        "Latitude": 40.3673,
        "Longitude": 28.1475
      }
    },
    {
      "type": "Feature",
      "geometry": {
        "type": "Point",
        "coordinates": [28.1475, 40.3673]
      },
      "properties": {
        "Name": "Bandirma (Borusan) wind farm",
        "Phase Name": "1A",
        "Capacity (MW)": 39.0,
        "Installation Type": "Onshore",
        "Status": "operating",
        "Start_year": 2009.0,
        "Province": "Balıkesir",
        "Latitude": 40.3673,
        "Longitude": 28.1475
      }
    },
    {
      "type": "Feature",
      "geometry": {
        "type": "Point",
        "coordinates": [28.1475, 40.3673]
      },
      "properties": {
        "Name": "Bandirma (Borusan) wind farm",
        "Phase Name": "1B",
        "Capacity (MW)": 21.0,
        "Installation Type": "Onshore",
        "Status": "operating",
        "Start_year": 2010.0,
        "Province": "Balıkesir",
        "Latitude": 40.3673,
        "Longitude": 28.1475
      }
    },
    {
      "type": "Feature",
      "geometry": {
        "type": "Point",
        "coordinates": [27.8573, 40.2705]
      },
      "properties": {
        "Name": "Bandirma-3 (Bursa) wind farm",
        "Phase Name": 1,
        "Capacity (MW)": 25.0,
        "Installation Type": "Onshore",
        "Status": "operating",
        "Start_year": 2008.0,
        "Province": "Balıkesir",
        "Latitude": 40.2705,
        "Longitude": 27.8573
      }
    },
    {
      "type": "Feature",
      "geometry": {
        "type": "Point",
        "coordinates": [27.8573, 40.2705]
      },
      "properties": {
        "Name": "Bandirma-3 (Bursa) wind farm",
        "Phase Name": 2,
        "Capacity (MW)": 17.0,
        "Installation Type": "Onshore",
        "Status": "operating",
        "Start_year": 2016.0,
        "Province": "Balıkesir",
        "Latitude": 40.2705,
        "Longitude": 27.8573
      }
    },
    {
      "type": "Feature",
      "geometry": {
        "type": "Point",
        "coordinates": [27.3015, 40.7914]
      },
      "properties": {
        "Name": "Barbaros wind farm",
        "Phase Name": "--",
        "Capacity (MW)": 12.0,
        "Installation Type": "Onshore",
        "Status": "operating",
        "Start_year": 2016.0,
        "Province": "Tekirdag",
        "Latitude": 40.7914,
        "Longitude": 27.3015
      }
    },
    {
      "type": "Feature",
      "geometry": {
        "type": "Point",
        "coordinates": [37.7566, 40.5586]
      },
      "properties": {
        "Name": "Bayir wind farm",
        "Phase Name": "--",
        "Capacity (MW)": 11.0,
        "Installation Type": "Onshore",
        "Status": "pre-construction",
        "Start_year": "NULL",
        "Province": "Ordu",
        "Latitude": 40.5586,
        "Longitude": 37.7566
      }
    },
    {
      "type": "Feature",
      "geometry": {
        "type": "Point",
        "coordinates": [36.1891, 36.4864]
      },
      "properties": {
        "Name": "Belen wind farm",
        "Phase Name": 1,
        "Capacity (MW)": 30.0,
        "Installation Type": "Onshore",
        "Status": "operating",
        "Start_year": 2009.0,
        "Province": "Hatay",
        "Latitude": 36.4864,
        "Longitude": 36.1891
      }
    },
    {
      "type": "Feature",
      "geometry": {
        "type": "Point",
        "coordinates": [36.1891, 36.4864]
      },
      "properties": {
        "Name": "Belen wind farm",
        "Phase Name": 3,
        "Capacity (MW)": 12.0,
        "Installation Type": "Onshore",
        "Status": "operating",
        "Start_year": 2012.0,
        "Province": "Hatay",
        "Latitude": 36.4864,
        "Longitude": 36.1891
      }
    },
    {
      "type": "Feature",
      "geometry": {
        "type": "Point",
        "coordinates": [28.681, 38.0318]
      },
      "properties": {
        "Name": "Belenova wind farm",
        "Phase Name": "--",
        "Capacity (MW)": 126.5,
        "Installation Type": "Onshore",
        "Status": "cancelled - inferred 4 y",
        "Start_year": "NULL",
        "Province": "NULL",
        "Latitude": 38.0318,
        "Longitude": 28.681
      }
    },
    {
      "type": "Feature",
      "geometry": {
        "type": "Point",
        "coordinates": [37.3428, 40.5578]
      },
      "properties": {
        "Name": "Bereketli wind farm",
        "Phase Name": "--",
        "Capacity (MW)": 32.0,
        "Installation Type": "Onshore",
        "Status": "operating",
        "Start_year": 2016.0,
        "Province": "Tokat",
        "Latitude": 40.5578,
        "Longitude": 37.3428
      }
    },
    {
      "type": "Feature",
      "geometry": {
        "type": "Point",
        "coordinates": [27.2322, 38.9597]
      },
      "properties": {
        "Name": "Berg wind farm (Türkiye)",
        "Phase Name": "--",
        "Capacity (MW)": 70.0,
        "Installation Type": "Onshore",
        "Status": "operating",
        "Start_year": 2017.0,
        "Province": "Izmir",
        "Latitude": 38.9597,
        "Longitude": 27.2322
      }
    },
    {
      "type": "Feature",
      "geometry": {
        "type": "Point",
        "coordinates": [27.1938, 38.9294]
      },
      "properties": {
        "Name": "Bergama (Bilgin) wind farm",
        "Phase Name": 1,
        "Capacity (MW)": 90.0,
        "Installation Type": "Onshore",
        "Status": "operating",
        "Start_year": 2010.0,
        "Province": "Izmir",
        "Latitude": 38.9294,
        "Longitude": 27.1938
      }
    },
    {
      "type": "Feature",
      "geometry": {
        "type": "Point",
        "coordinates": [27.1938, 38.9294]
      },
      "properties": {
        "Name": "Bergama (Bilgin) wind farm",
        "Phase Name": 2,
        "Capacity (MW)": 30.0,
        "Installation Type": "Onshore",
        "Status": "operating",
        "Start_year": 2016.0,
        "Province": "Izmir",
        "Latitude": 38.9294,
        "Longitude": 27.1938
      }
    },
    {
      "type": "Feature",
      "geometry": {
        "type": "Point",
        "coordinates": [27.0856, 39.1526]
      },
      "properties": {
        "Name": "Bergama (Vento) wind farm",
        "Phase Name": "--",
        "Capacity (MW)": 25.0,
        "Installation Type": "Onshore",
        "Status": "operating",
        "Start_year": 2018.0,
        "Province": "Izmir",
        "Latitude": 39.1526,
        "Longitude": 27.0856
      }
    },
    {
      "type": "Feature",
      "geometry": {
        "type": "Point",
        "coordinates": [31.7974, 40.2568]
      },
      "properties": {
        "Name": "Beypazari wind farm",
        "Phase Name": "--",
        "Capacity (MW)": 21.0,
        "Installation Type": "Onshore",
        "Status": "cancelled - inferred 4 y",
        "Start_year": "NULL",
        "Province": "Ankara",
        "Latitude": 40.2568,
        "Longitude": 31.7974
      }
    },
    {
      "type": "Feature",
      "geometry": {
        "type": "Point",
        "coordinates": [34.8108, 39.8205]
      },
      "properties": {
        "Name": "Beyyurdu wind farm",
        "Phase Name": "--",
        "Capacity (MW)": 32.0,
        "Installation Type": "Onshore",
        "Status": "cancelled",
        "Start_year": "NULL",
        "Province": "Çekerek",
        "Latitude": 39.8205,
        "Longitude": 34.8108
      }
    },
    {
      "type": "Feature",
      "geometry": {
        "type": "Point",
        "coordinates": [27.1721, 40.4024]
      },
      "properties": {
        "Name": "Biga wind farm",
        "Phase Name": "--",
        "Capacity (MW)": 61.0,
        "Installation Type": "Onshore",
        "Status": "operating",
        "Start_year": 2015.0,
        "Province": "Çanakkale",
        "Latitude": 40.4024,
        "Longitude": 27.1721
      }
    },
    {
      "type": "Feature",
      "geometry": {
        "type": "Point",
        "coordinates": [25.9716, 39.8334]
      },
      "properties": {
        "Name": "Bozcaada wind farm",
        "Phase Name": "--",
        "Capacity (MW)": 10.0,
        "Installation Type": "Onshore",
        "Status": "operating",
        "Start_year": 2000.0,
        "Province": "Çanakkale",
        "Latitude": 39.8334,
        "Longitude": 25.9716
      }
    },
    {
      "type": "Feature",
      "geometry": {
        "type": "Point",
        "coordinates": [29.8422, 39.8685]
      },
      "properties": {
        "Name": "Bozuyük wind farm",
        "Phase Name": "--",
        "Capacity (MW)": 90.0,
        "Installation Type": "Onshore",
        "Status": "operating",
        "Start_year": 2021.0,
        "Province": "Bilecik",
        "Latitude": 39.8685,
        "Longitude": 29.8422
      }
    },
    {
      "type": "Feature",
      "geometry": {
        "type": "Point",
        "coordinates": [26.9466, 38.7495]
      },
      "properties": {
        "Name": "Bozyaka wind farm",
        "Phase Name": "--",
        "Capacity (MW)": 12.0,
        "Installation Type": "Onshore",
        "Status": "operating",
        "Start_year": 2012.0,
        "Province": "Izmir",
        "Latitude": 38.7495,
        "Longitude": 26.9466
      }
    },
    {
      "type": "Feature",
      "geometry": {
        "type": "Point",
        "coordinates": [26.583, 40.3883]
      },
      "properties": {
        "Name": "Burgaz wind farm",
        "Phase Name": "--",
        "Capacity (MW)": 14.9,
        "Installation Type": "Onshore",
        "Status": "operating",
        "Start_year": 2007.0,
        "Province": "Çanakkale",
        "Latitude": 40.3883,
        "Longitude": 26.583
      }
    },
    {
      "type": "Feature",
      "geometry": {
        "type": "Point",
        "coordinates": [29.1258, 40.5343]
      },
      "properties": {
        "Name": "Çakil wind farm",
        "Phase Name": 1,
        "Capacity (MW)": 16.0,
        "Installation Type": "Onshore",
        "Status": "operating",
        "Start_year": 2019.0,
        "Province": "Bursa",
        "Latitude": 40.5343,
        "Longitude": 29.1258
      }
    },
    {
      "type": "Feature",
      "geometry": {
        "type": "Point",
        "coordinates": [29.1258, 40.5343]
      },
      "properties": {
        "Name": "Çakil wind farm",
        "Phase Name": 2,
        "Capacity (MW)": 28.0,
        "Installation Type": "Onshore",
        "Status": "operating",
        "Start_year": 2020.0,
        "Province": "Bursa",
        "Latitude": 40.5343,
        "Longitude": 29.1258
      }
    },
    {
      "type": "Feature",
      "geometry": {
        "type": "Point",
        "coordinates": [26.2266, 39.8664]
      },
      "properties": {
        "Name": "Çakkale wind farm",
        "Phase Name": "--",
        "Capacity (MW)": 30.0,
        "Installation Type": "Onshore",
        "Status": "operating",
        "Start_year": 2010.0,
        "Province": "Çanakkale",
        "Latitude": 39.8664,
        "Longitude": 26.2266
      }
    },
    {
      "type": "Feature",
      "geometry": {
        "type": "Point",
        "coordinates": [32.3261, 38.1214]
      },
      "properties": {
        "Name": "Çaminbasi wind farm",
        "Phase Name": "--",
        "Capacity (MW)": 28.0,
        "Installation Type": "Onshore",
        "Status": "operating",
        "Start_year": 2020.0,
        "Province": "Konya",
        "Latitude": 38.1214,
        "Longitude": 32.3261
      }
    },
    {
      "type": "Feature",
      "geometry": {
        "type": "Point",
        "coordinates": [26.177, 39.8913]
      },
      "properties": {
        "Name": "Çamseki wind farm",
        "Phase Name": 1,
        "Capacity (MW)": 20.0,
        "Installation Type": "Onshore",
        "Status": "operating",
        "Start_year": 2009.0,
        "Province": "Çanakkale",
        "Latitude": 39.8913,
        "Longitude": 26.177
      }
    },
    {
      "type": "Feature",
      "geometry": {
        "type": "Point",
        "coordinates": [26.177, 39.8913]
      },
      "properties": {
        "Name": "Çamseki wind farm",
        "Phase Name": 2,
        "Capacity (MW)": 42.0,
        "Installation Type": "Onshore",
        "Status": "operating",
        "Start_year": 2018.0,
        "Province": "Çanakkale",
        "Latitude": 39.8913,
        "Longitude": 26.177
      }
    },
    {
      "type": "Feature",
      "geometry": {
        "type": "Point",
        "coordinates": [26.8561, 38.9737]
      },
      "properties": {
        "Name": "Çandarli wind farm",
        "Phase Name": "--",
        "Capacity (MW)": 36.0,
        "Installation Type": "Onshore",
        "Status": "operating",
        "Start_year": "NULL",
        "Province": "Izmir",
        "Latitude": 38.9737,
        "Longitude": 26.8561
      }
    },
    {
      "type": "Feature",
      "geometry": {
        "type": "Point",
        "coordinates": [28.0567, 41.1237]
      },
      "properties": {
        "Name": "Çanta wind farm",
        "Phase Name": 1,
        "Capacity (MW)": 48.0,
        "Installation Type": "Onshore",
        "Status": "operating",
        "Start_year": 2014.0,
        "Province": "Istanbul",
        "Latitude": 41.1237,
        "Longitude": 28.0567
      }
    },
    {
      "type": "Feature",
      "geometry": {
        "type": "Point",
        "coordinates": [28.433, 41.1495]
      },
      "properties": {
        "Name": "Çatalca wind farm",
        "Phase Name": 1,
        "Capacity (MW)": 60.0,
        "Installation Type": "Onshore",
        "Status": "operating",
        "Start_year": 2008.0,
        "Province": "Istanbul",
        "Latitude": 41.1495,
        "Longitude": 28.433
      }
    },
    {
      "type": "Feature",
      "geometry": {
        "type": "Point",
        "coordinates": [28.433, 41.1495]
      },
      "properties": {
        "Name": "Çatalca wind farm",
        "Phase Name": 2,
        "Capacity (MW)": 34.0,
        "Installation Type": "Onshore",
        "Status": "operating",
        "Start_year": 2017.0,
        "Province": "Istanbul",
        "Latitude": 41.1495,
        "Longitude": 28.433
      }
    },
    {
      "type": "Feature",
      "geometry": {
        "type": "Point",
        "coordinates": [28.1052, 39.7065]
      },
      "properties": {
        "Name": "Çaypir wind farm",
        "Phase Name": "--",
        "Capacity (MW)": 25.0,
        "Installation Type": "Onshore",
        "Status": "operating",
        "Start_year": 2020.0,
        "Province": "Balıkesir",
        "Latitude": 39.7065,
        "Longitude": 28.1052
      }
    },
    {
      "type": "Feature",
      "geometry": {
        "type": "Point",
        "coordinates": [28.8204, 40.3593]
      },
      "properties": {
        "Name": "Çepni wind farm",
        "Phase Name": "--",
        "Capacity (MW)": 11.0,
        "Installation Type": "Onshore",
        "Status": "pre-construction",
        "Start_year": "NULL",
        "Province": "Bursa",
        "Latitude": 40.3593,
        "Longitude": 28.8204
      }
    },
    {
      "type": "Feature",
      "geometry": {
        "type": "Point",
        "coordinates": [36.1172, 36.434]
      },
      "properties": {
        "Name": "Çerçikaya wind farm",
        "Phase Name": "--",
        "Capacity (MW)": 57.0,
        "Installation Type": "Onshore",
        "Status": "operating",
        "Start_year": 2015.0,
        "Province": "Hatay",
        "Latitude": 36.434,
        "Longitude": 36.1172
      }
    },
    {
      "type": "Feature",
      "geometry": {
        "type": "Point",
        "coordinates": [37.2992, 37.7242]
      },
      "properties": {
        "Name": "Cerit wind farm",
        "Phase Name": 1,
        "Capacity (MW)": 58.0,
        "Installation Type": "Onshore",
        "Status": "operating",
        "Start_year": 2018.0,
        "Province": "Kahramanmaraş",
        "Latitude": 37.7242,
        "Longitude": 37.2992
      }
    },
    {
      "type": "Feature",
      "geometry": {
        "type": "Point",
        "coordinates": [37.3313, 37.722]
      },
      "properties": {
        "Name": "Cerit wind farm",
        "Phase Name": 2,
        "Capacity (MW)": 35.0,
        "Installation Type": "Onshore",
        "Status": "operating",
        "Start_year": 2020.0,
        "Province": "Kahramanmaraş",
        "Latitude": 37.722,
        "Longitude": 37.3313
      }
    },
    {
      "type": "Feature",
      "geometry": {
        "type": "Point",
        "coordinates": [26.3247, 38.2989]
      },
      "properties": {
        "Name": "Çesme wind farm",
        "Phase Name": "--",
        "Capacity (MW)": 18.0,
        "Installation Type": "Onshore",
        "Status": "operating",
        "Start_year": 2015.0,
        "Province": "Izmir",
        "Latitude": 38.2989,
        "Longitude": 26.3247
      }
    },
    {
      "type": "Feature",
      "geometry": {
        "type": "Point",
        "coordinates": [31.7887, 37.0935]
      },
      "properties": {
        "Name": "D1 wind farm",
        "Phase Name": "--",
        "Capacity (MW)": 12.0,
        "Installation Type": "Onshore",
        "Status": "cancelled",
        "Start_year": "NULL",
        "Province": "Antalya",
        "Latitude": 37.0935,
        "Longitude": 31.7887
      }
    },
    {
      "type": "Feature",
      "geometry": {
        "type": "Point",
        "coordinates": [31.5426, 37.0032]
      },
      "properties": {
        "Name": "D3 wind farm",
        "Phase Name": "--",
        "Capacity (MW)": 12.0,
        "Installation Type": "Onshore",
        "Status": "cancelled",
        "Start_year": "NULL",
        "Province": "Antalya",
        "Latitude": 37.0032,
        "Longitude": 31.5426
      }
    },
    {
      "type": "Feature",
      "geometry": {
        "type": "Point",
        "coordinates": [33.4172, 36.7725]
      },
      "properties": {
        "Name": "Dagpazari (Enerjisa) wind farm",
        "Phase Name": "--",
        "Capacity (MW)": 39.0,
        "Installation Type": "Onshore",
        "Status": "operating",
        "Start_year": 2011.0,
        "Province": "Mersin",
        "Latitude": 36.7725,
        "Longitude": 33.4172
      }
    },
    {
      "type": "Feature",
      "geometry": {
        "type": "Point",
        "coordinates": [27.696, 36.7804]
      },
      "properties": {
        "Name": "Dares Datça wind farm",
        "Phase Name": 1,
        "Capacity (MW)": 22.0,
        "Installation Type": "Onshore",
        "Status": "operating",
        "Start_year": 2008.0,
        "Province": "Mugla",
        "Latitude": 36.7804,
        "Longitude": 27.696
      }
    },
    {
      "type": "Feature",
      "geometry": {
        "type": "Point",
        "coordinates": [27.696, 36.7804]
      },
      "properties": {
        "Name": "Dares Datça wind farm",
        "Phase Name": 2,
        "Capacity (MW)": 12.0,
        "Installation Type": "Onshore",
        "Status": "operating",
        "Start_year": 2017.0,
        "Province": "Mugla",
        "Latitude": 36.7804,
        "Longitude": 27.696
      }
    },
    {
      "type": "Feature",
      "geometry": {
        "type": "Point",
        "coordinates": [27.6331, 36.7607]
      },
      "properties": {
        "Name": "Dares Datça wind farm",
        "Phase Name": 3,
        "Capacity (MW)": 12.0,
        "Installation Type": "Onshore",
        "Status": "operating",
        "Start_year": 2018.0,
        "Province": "Mugla",
        "Latitude": 36.7607,
        "Longitude": 27.6331
      }
    },
    {
      "type": "Feature",
      "geometry": {
        "type": "Point",
        "coordinates": [36.6678, 37.244]
      },
      "properties": {
        "Name": "Demirciler wind farm",
        "Phase Name": "--",
        "Capacity (MW)": 23.0,
        "Installation Type": "Onshore",
        "Status": "operating",
        "Start_year": 2016.0,
        "Province": "Osmaniye",
        "Latitude": 37.244,
        "Longitude": 36.6678
      }
    },
    {
      "type": "Feature",
      "geometry": {
        "type": "Point",
        "coordinates": [26.7409, 38.2413]
      },
      "properties": {
        "Name": "Demircili wind farm",
        "Phase Name": 2,
        "Capacity (MW)": 32.0,
        "Installation Type": "Onshore",
        "Status": "operating",
        "Start_year": 2016.0,
        "Province": "Izmir",
        "Latitude": 38.2413,
        "Longitude": 26.7409
      }
    },
    {
      "type": "Feature",
      "geometry": {
        "type": "Point",
        "coordinates": [33.8847, 39.3032]
      },
      "properties": {
        "Name": "Demirli wind farm",
        "Phase Name": "--",
        "Capacity (MW)": 60.0,
        "Installation Type": "Onshore",
        "Status": "shelved - inferred 2 y",
        "Start_year": "NULL",
        "Province": "Kirsehir",
        "Latitude": 39.3032,
        "Longitude": 33.8847
      }
    },
    {
      "type": "Feature",
      "geometry": {
        "type": "Point",
        "coordinates": [36.8253, 40.1842]
      },
      "properties": {
        "Name": "Demirözü wind farm",
        "Phase Name": "--",
        "Capacity (MW)": 37.0,
        "Installation Type": "Onshore",
        "Status": "cancelled - inferred 4 y",
        "Start_year": "NULL",
        "Province": "Sivas",
        "Latitude": 40.1842,
        "Longitude": 36.8253
      }
    },
    {
      "type": "Feature",
      "geometry": {
        "type": "Point",
        "coordinates": [28.8076, 37.7779]
      },
      "properties": {
        "Name": "Denizli wind farm",
        "Phase Name": "--",
        "Capacity (MW)": 75.0,
        "Installation Type": "Onshore",
        "Status": "operating",
        "Start_year": 2019.0,
        "Province": "Denizli",
        "Latitude": 37.7779,
        "Longitude": 28.8076
      }
    },
    {
      "type": "Feature",
      "geometry": {
        "type": "Point",
        "coordinates": [40.3139, 37.3546]
      },
      "properties": {
        "Name": "Dicleres wind farm",
        "Phase Name": "--",
        "Capacity (MW)": 60.0,
        "Installation Type": "Onshore",
        "Status": "pre-construction",
        "Start_year": "NULL",
        "Province": "Mardin",
        "Latitude": 37.3546,
        "Longitude": 40.3139
      }
    },
    {
      "type": "Feature",
      "geometry": {
        "type": "Point",
        "coordinates": [36.4653, 37.5386]
      },
      "properties": {
        "Name": "Dilek wind farm",
        "Phase Name": "--",
        "Capacity (MW)": 24.0,
        "Installation Type": "Onshore",
        "Status": "operating",
        "Start_year": 2015.0,
        "Province": "Kahramanmaraş",
        "Latitude": 37.5386,
        "Longitude": 36.4653
      }
    },
    {
      "type": "Feature",
      "geometry": {
        "type": "Point",
        "coordinates": [30.1366, 38.1552]
      },
      "properties": {
        "Name": "Dir wind farm",
        "Phase Name": 1,
        "Capacity (MW)": 50.6,
        "Installation Type": "Onshore",
        "Status": "operating",
        "Start_year": 2013.0,
        "Province": "Afyonkarahisar",
        "Latitude": 38.1552,
        "Longitude": 30.1366
      }
    },
    {
      "type": "Feature",
      "geometry": {
        "type": "Point",
        "coordinates": [30.1366, 38.1552]
      },
      "properties": {
        "Name": "Dir wind farm",
        "Phase Name": 2,
        "Capacity (MW)": 27.6,
        "Installation Type": "Onshore",
        "Status": "operating",
        "Start_year": 2016.0,
        "Province": "Afyonkarahisar",
        "Latitude": 38.1552,
        "Longitude": 30.1366
      }
    },
    {
      "type": "Feature",
      "geometry": {
        "type": "Point",
        "coordinates": [30.1359, 38.1545]
      },
      "properties": {
        "Name": "Dir wind farm",
        "Phase Name": 3,
        "Capacity (MW)": 36.8,
        "Installation Type": "Onshore",
        "Status": "operating",
        "Start_year": "NULL",
        "Province": "NULL",
        "Latitude": 38.1545,
        "Longitude": 30.1359
      }
    },
    {
      "type": "Feature",
      "geometry": {
        "type": "Point",
        "coordinates": [30.1354, 38.1551]
      },
      "properties": {
        "Name": "Dir wind farm",
        "Phase Name": 4.1,
        "Capacity (MW)": 77.0,
        "Installation Type": "Onshore",
        "Status": "operating",
        "Start_year": "NULL",
        "Province": "NULL",
        "Latitude": 38.1551,
        "Longitude": 30.1354
      }
    },
    {
      "type": "Feature",
      "geometry": {
        "type": "Point",
        "coordinates": [28.4591, 41.1458]
      },
      "properties": {
        "Name": "Dirkshof Universal wind farm",
        "Phase Name": "--",
        "Capacity (MW)": 211.2,
        "Installation Type": "Onshore",
        "Status": "operating",
        "Start_year": 2022.0,
        "Province": "NULL",
        "Latitude": 41.1458,
        "Longitude": 28.4591
      }
    },
    {
      "type": "Feature",
      "geometry": {
        "type": "Point",
        "coordinates": [31.3186, 37.424]
      },
      "properties": {
        "Name": "Dokukdagi wind farm",
        "Phase Name": "--",
        "Capacity (MW)": 30.0,
        "Installation Type": "Onshore",
        "Status": "cancelled - inferred 4 y",
        "Start_year": "NULL",
        "Province": "Antalya",
        "Latitude": 37.424,
        "Longitude": 31.3186
      }
    },
    {
      "type": "Feature",
      "geometry": {
        "type": "Point",
        "coordinates": [27.0291, 39.0416]
      },
      "properties": {
        "Name": "Düzova wind farm",
        "Phase Name": 1,
        "Capacity (MW)": 15.0,
        "Installation Type": "Onshore",
        "Status": "operating",
        "Start_year": 2009.0,
        "Province": "Izmir",
        "Latitude": 39.0416,
        "Longitude": 27.0291
      }
    },
    {
      "type": "Feature",
      "geometry": {
        "type": "Point",
        "coordinates": [27.0291, 39.0416]
      },
      "properties": {
        "Name": "Düzova wind farm",
        "Phase Name": 2,
        "Capacity (MW)": 15.0,
        "Installation Type": "Onshore",
        "Status": "operating",
        "Start_year": 2010.0,
        "Province": "Izmir",
        "Latitude": 39.0416,
        "Longitude": 27.0291
      }
    },
    {
      "type": "Feature",
      "geometry": {
        "type": "Point",
        "coordinates": [27.0291, 39.0416]
      },
      "properties": {
        "Name": "Düzova wind farm",
        "Phase Name": 5,
        "Capacity (MW)": 11.0,
        "Installation Type": "Onshore",
        "Status": "operating",
        "Start_year": 2014.0,
        "Province": "Izmir",
        "Latitude": 39.0416,
        "Longitude": 27.0291
      }
    },
    {
      "type": "Feature",
      "geometry": {
        "type": "Point",
        "coordinates": [30.3957, 38.4602]
      },
      "properties": {
        "Name": "Eber wind farm",
        "Phase Name": "--",
        "Capacity (MW)": 39.0,
        "Installation Type": "Onshore",
        "Status": "operating",
        "Start_year": 2018.0,
        "Province": "Afyonkarahisar",
        "Latitude": 38.4602,
        "Longitude": 30.3957
      }
    },
    {
      "type": "Feature",
      "geometry": {
        "type": "Point",
        "coordinates": [27.8448, 40.3366]
      },
      "properties": {
        "Name": "Edincik wind farm",
        "Phase Name": 1,
        "Capacity (MW)": 30.0,
        "Installation Type": "Onshore",
        "Status": "operating",
        "Start_year": 2013.0,
        "Province": "Balıkesir",
        "Latitude": 40.3366,
        "Longitude": 27.8448
      }
    },
    {
      "type": "Feature",
      "geometry": {
        "type": "Point",
        "coordinates": [27.8448, 40.3366]
      },
      "properties": {
        "Name": "Edincik wind farm",
        "Phase Name": 2,
        "Capacity (MW)": 26.0,
        "Installation Type": "Onshore",
        "Status": "operating",
        "Start_year": 2015.0,
        "Province": "Balıkesir",
        "Latitude": 40.3366,
        "Longitude": 27.8448
      }
    },
    {
      "type": "Feature",
      "geometry": {
        "type": "Point",
        "coordinates": [27.8448, 40.3366]
      },
      "properties": {
        "Name": "Edincik wind farm",
        "Phase Name": 3,
        "Capacity (MW)": 21.0,
        "Installation Type": "Onshore",
        "Status": "operating",
        "Start_year": 2016.0,
        "Province": "Balıkesir",
        "Latitude": 40.3366,
        "Longitude": 27.8448
      }
    },
    {
      "type": "Feature",
      "geometry": {
        "type": "Point",
        "coordinates": [26.3149, 40.6849]
      },
      "properties": {
        "Name": "Edirne wind farm",
        "Phase Name": "--",
        "Capacity (MW)": 295.0,
        "Installation Type": "Onshore",
        "Status": "pre-construction",
        "Start_year": 2026.0,
        "Province": "Edirne",
        "Latitude": 40.6849,
        "Longitude": 26.3149
      }
    },
    {
      "type": "Feature",
      "geometry": {
        "type": "Point",
        "coordinates": [27.1723, 41.9729]
      },
      "properties": {
        "Name": "Elmacık wind farm",
        "Phase Name": "--",
        "Capacity (MW)": 70.0,
        "Installation Type": "Onshore",
        "Status": "pre-construction",
        "Start_year": "NULL",
        "Province": "Kırklareli",
        "Latitude": 41.9729,
        "Longitude": 27.1723
      }
    },
    {
      "type": "Feature",
      "geometry": {
        "type": "Point",
        "coordinates": [33.6521, 36.3106]
      },
      "properties": {
        "Name": "Elmali (Peker) wind farm",
        "Phase Name": "--",
        "Capacity (MW)": 30.0,
        "Installation Type": "Onshore",
        "Status": "operating",
        "Start_year": 2016.0,
        "Province": "Mersin",
        "Latitude": 36.3106,
        "Longitude": 33.6521
      }
    },
    {
      "type": "Feature",
      "geometry": {
        "type": "Point",
        "coordinates": [33.6458, 36.2816]
      },
      "properties": {
        "Name": "Elmali (Suryapi) wind farm",
        "Phase Name": "--",
        "Capacity (MW)": 10.0,
        "Installation Type": "Onshore",
        "Status": "operating",
        "Start_year": 2017.0,
        "Province": "Mersin",
        "Latitude": 36.2816,
        "Longitude": 33.6458
      }
    },
    {
      "type": "Feature",
      "geometry": {
        "type": "Point",
        "coordinates": [26.1968, 40.7216]
      },
      "properties": {
        "Name": "Enez wind farm",
        "Phase Name": 1,
        "Capacity (MW)": 15.0,
        "Installation Type": "Onshore",
        "Status": "operating",
        "Start_year": 2009.0,
        "Province": "Edirne",
        "Latitude": 40.7216,
        "Longitude": 26.1968
      }
    },
    {
      "type": "Feature",
      "geometry": {
        "type": "Point",
        "coordinates": [35.4496, 38.7306]
      },
      "properties": {
        "Name": "Erciyes wind farm",
        "Phase Name": "--",
        "Capacity (MW)": 68.0,
        "Installation Type": "Onshore",
        "Status": "cancelled",
        "Start_year": "NULL",
        "Province": "Central Anatolia",
        "Latitude": 38.7306,
        "Longitude": 35.4496
      }
    },
    {
      "type": "Feature",
      "geometry": {
        "type": "Point",
        "coordinates": [40.134, 40.4967]
      },
      "properties": {
        "Name": "Erimez wind farm",
        "Phase Name": "--",
        "Capacity (MW)": 40.0,
        "Installation Type": "Onshore",
        "Status": "cancelled",
        "Start_year": "NULL",
        "Province": "Bayburt",
        "Latitude": 40.4967,
        "Longitude": 40.134
      }
    },
    {
      "type": "Feature",
      "geometry": {
        "type": "Point",
        "coordinates": [29.0156, 40.5828]
      },
      "properties": {
        "Name": "Esenköy wind farm",
        "Phase Name": "--",
        "Capacity (MW)": 32.0,
        "Installation Type": "Onshore",
        "Status": "operating",
        "Start_year": 2017.0,
        "Province": "Yalova",
        "Latitude": 40.5828,
        "Longitude": 29.0156
      }
    },
    {
      "type": "Feature",
      "geometry": {
        "type": "Point",
        "coordinates": [30.4189, 39.9821]
      },
      "properties": {
        "Name": "Eskişehir wind farm",
        "Phase Name": "--",
        "Capacity (MW)": 50.0,
        "Installation Type": "Onshore",
        "Status": "pre-construction",
        "Start_year": 2026.0,
        "Province": "Eskisehir",
        "Latitude": 39.9821,
        "Longitude": 30.4189
      }
    },
    {
      "type": "Feature",
      "geometry": {
        "type": "Point",
        "coordinates": [27.7013, 41.6546]
      },
      "properties": {
        "Name": "Evrencik wind farm",
        "Phase Name": "--",
        "Capacity (MW)": 120.0,
        "Installation Type": "Onshore",
        "Status": "operating",
        "Start_year": "NULL",
        "Province": "Kırklareli",
        "Latitude": 41.6546,
        "Longitude": 27.7013
      }
    },
    {
      "type": "Feature",
      "geometry": {
        "type": "Point",
        "coordinates": [28.4548, 37.2469]
      },
      "properties": {
        "Name": "Fatma wind farm",
        "Phase Name": "--",
        "Capacity (MW)": 80.0,
        "Installation Type": "Onshore",
        "Status": "operating",
        "Start_year": 2016.0,
        "Province": "Mugla",
        "Latitude": 37.2469,
        "Longitude": 28.4548
      }
    },
    {
      "type": "Feature",
      "geometry": {
        "type": "Point",
        "coordinates": [27.5256, 38.3465]
      },
      "properties": {
        "Name": "Fuat wind farm",
        "Phase Name": 1,
        "Capacity (MW)": 20.0,
        "Installation Type": "Onshore",
        "Status": "operating",
        "Start_year": 2015.0,
        "Province": "Izmir",
        "Latitude": 38.3465,
        "Longitude": 27.5256
      }
    },
    {
      "type": "Feature",
      "geometry": {
        "type": "Point",
        "coordinates": [27.5256, 38.3465]
      },
      "properties": {
        "Name": "Fuat wind farm",
        "Phase Name": 2,
        "Capacity (MW)": 14.0,
        "Installation Type": "Onshore",
        "Status": "operating",
        "Start_year": 2017.0,
        "Province": "Izmir",
        "Latitude": 38.3465,
        "Longitude": 27.5256
      }
    },
    {
      "type": "Feature",
      "geometry": {
        "type": "Point",
        "coordinates": [26.7313, 39.9076]
      },
      "properties": {
        "Name": "Gazi-9 wind farm",
        "Phase Name": "--",
        "Capacity (MW)": 67.0,
        "Installation Type": "Onshore",
        "Status": "operating",
        "Start_year": "NULL",
        "Province": "Çanakkale",
        "Latitude": 39.9076,
        "Longitude": 26.7313
      }
    },
    {
      "type": "Feature",
      "geometry": {
        "type": "Point",
        "coordinates": [28.1993, 41.2924]
      },
      "properties": {
        "Name": "Gaziosmanpasa wind farm",
        "Phase Name": 1,
        "Capacity (MW)": 50.0,
        "Installation Type": "Onshore",
        "Status": "operating",
        "Start_year": 2021.0,
        "Province": "Istanbul",
        "Latitude": 41.2924,
        "Longitude": 28.1993
      }
    },
    {
      "type": "Feature",
      "geometry": {
        "type": "Point",
        "coordinates": [28.1993, 41.2924]
      },
      "properties": {
        "Name": "Gaziosmanpasa wind farm",
        "Phase Name": 2,
        "Capacity (MW)": 12.8,
        "Installation Type": "Onshore",
        "Status": "announced",
        "Start_year": "NULL",
        "Province": "Istanbul",
        "Latitude": 41.2924,
        "Longitude": 28.1993
      }
    },
    {
      "type": "Feature",
      "geometry": {
        "type": "Point",
        "coordinates": [27.9009, 39.203]
      },
      "properties": {
        "Name": "Ge wind farm",
        "Phase Name": "--",
        "Capacity (MW)": 28.0,
        "Installation Type": "Onshore",
        "Status": "operating",
        "Start_year": 2014.0,
        "Province": "Manisa",
        "Latitude": 39.203,
        "Longitude": 27.9009
      }
    },
    {
      "type": "Feature",
      "geometry": {
        "type": "Point",
        "coordinates": [28.3479, 41.1015]
      },
      "properties": {
        "Name": "Gelgit wind farm",
        "Phase Name": "--",
        "Capacity (MW)": 50.0,
        "Installation Type": "Onshore",
        "Status": "pre-construction",
        "Start_year": 2025.0,
        "Province": "Istanbul",
        "Latitude": 41.1015,
        "Longitude": 28.3479
      }
    },
    {
      "type": "Feature",
      "geometry": {
        "type": "Point",
        "coordinates": [26.9066, 40.2686]
      },
      "properties": {
        "Name": "Gelibolu (Rt) wind farm",
        "Phase Name": "--",
        "Capacity (MW)": 30.0,
        "Installation Type": "Onshore",
        "Status": "operating",
        "Start_year": 2021.0,
        "Province": "Çanakkale",
        "Latitude": 40.2686,
        "Longitude": 26.9066
      }
    },
    {
      "type": "Feature",
      "geometry": {
        "type": "Point",
        "coordinates": [26.4214, 39.6351]
      },
      "properties": {
        "Name": "Gelibolu (Yelen) wind farm",
        "Phase Name": "--",
        "Capacity (MW)": 11.0,
        "Installation Type": "Onshore",
        "Status": "operating",
        "Start_year": 2020.0,
        "Province": "Çanakkale",
        "Latitude": 39.6351,
        "Longitude": 26.4214
      }
    },
    {
      "type": "Feature",
      "geometry": {
        "type": "Point",
        "coordinates": [27.8989, 39.2095]
      },
      "properties": {
        "Name": "Geres wind farm",
        "Phase Name": "--",
        "Capacity (MW)": 30.0,
        "Installation Type": "Onshore",
        "Status": "operating",
        "Start_year": "NULL",
        "Province": "Istanbul",
        "Latitude": 39.2095,
        "Longitude": 27.8989
      }
    },
    {
      "type": "Feature",
      "geometry": {
        "type": "Point",
        "coordinates": [27.282, 37.0761]
      },
      "properties": {
        "Name": "Geris wind farm",
        "Phase Name": "--",
        "Capacity (MW)": 12.0,
        "Installation Type": "Onshore",
        "Status": "operating",
        "Start_year": 2017.0,
        "Province": "Mugla",
        "Latitude": 37.0761,
        "Longitude": 27.282
      }
    },
    {
      "type": "Feature",
      "geometry": {
        "type": "Point",
        "coordinates": [26.4376, 38.3285]
      },
      "properties": {
        "Name": "Germiyan wind farm",
        "Phase Name": "--",
        "Capacity (MW)": 12.0,
        "Installation Type": "Onshore",
        "Status": "operating",
        "Start_year": 2016.0,
        "Province": "Izmir",
        "Latitude": 38.3285,
        "Longitude": 26.4376
      }
    },
    {
      "type": "Feature",
      "geometry": {
        "type": "Point",
        "coordinates": [34.4409, 39.1237]
      },
      "properties": {
        "Name": "Geycek wind farm",
        "Phase Name": "1A",
        "Capacity (MW)": 15.0,
        "Installation Type": "Onshore",
        "Status": "operating",
        "Start_year": 2013.0,
        "Province": "Kirsehir",
        "Latitude": 39.1237,
        "Longitude": 34.4409
      }
    },
    {
      "type": "Feature",
      "geometry": {
        "type": "Point",
        "coordinates": [34.4409, 39.1237]
      },
      "properties": {
        "Name": "Geycek wind farm",
        "Phase Name": "1B",
        "Capacity (MW)": 90.0,
        "Installation Type": "Onshore",
        "Status": "operating",
        "Start_year": 2013.0,
        "Province": "Kirsehir",
        "Latitude": 39.1237,
        "Longitude": 34.4409
      }
    },
    {
      "type": "Feature",
      "geometry": {
        "type": "Point",
        "coordinates": [34.4409, 39.1237]
      },
      "properties": {
        "Name": "Geycek wind farm",
        "Phase Name": "2A",
        "Capacity (MW)": 15.0,
        "Installation Type": "Onshore",
        "Status": "operating",
        "Start_year": 2014.0,
        "Province": "Kirsehir",
        "Latitude": 39.1237,
        "Longitude": 34.4409
      }
    },
    {
      "type": "Feature",
      "geometry": {
        "type": "Point",
        "coordinates": [34.4409, 39.1237]
      },
      "properties": {
        "Name": "Geycek wind farm",
        "Phase Name": "2B",
        "Capacity (MW)": 48.0,
        "Installation Type": "Onshore",
        "Status": "operating",
        "Start_year": 2014.0,
        "Province": "Kirsehir",
        "Latitude": 39.1237,
        "Longitude": 34.4409
      }
    },
    {
      "type": "Feature",
      "geometry": {
        "type": "Point",
        "coordinates": [30.4501, 40.5659]
      },
      "properties": {
        "Name": "Geyve wind farm",
        "Phase Name": 1,
        "Capacity (MW)": 50.0,
        "Installation Type": "Onshore",
        "Status": "operating",
        "Start_year": "NULL",
        "Province": "Sakarya",
        "Latitude": 40.5659,
        "Longitude": 30.4501
      }
    },
    {
      "type": "Feature",
      "geometry": {
        "type": "Point",
        "coordinates": [30.4501, 40.5659]
      },
      "properties": {
        "Name": "Geyve wind farm",
        "Phase Name": 2,
        "Capacity (MW)": 100.0,
        "Installation Type": "Onshore",
        "Status": "announced",
        "Start_year": "NULL",
        "Province": "Sakarya",
        "Latitude": 40.5659,
        "Longitude": 30.4501
      }
    },
    {
      "type": "Feature",
      "geometry": {
        "type": "Point",
        "coordinates": [39.7808, 39.0665]
      },
      "properties": {
        "Name": "Gök wind farm",
        "Phase Name": "--",
        "Capacity (MW)": 36.0,
        "Installation Type": "Onshore",
        "Status": "operating",
        "Start_year": 2014.0,
        "Province": "Manisa",
        "Latitude": 39.0665,
        "Longitude": 39.7808
      }
    },
    {
      "type": "Feature",
      "geometry": {
        "type": "Point",
        "coordinates": [25.9085, 40.2004]
      },
      "properties": {
        "Name": "Gokceada Wind",
        "Phase Name": "--",
        "Capacity (MW)": 78.0,
        "Installation Type": "Onshore",
        "Status": "cancelled - inferred 4 y",
        "Start_year": "NULL",
        "Province": "Çanakkale",
        "Latitude": 40.2004,
        "Longitude": 25.9085
      }
    },
    {
      "type": "Feature",
      "geometry": {
        "type": "Point",
        "coordinates": [36.6644, 37.1679]
      },
      "properties": {
        "Name": "Gökçedag wind farm",
        "Phase Name": "--",
        "Capacity (MW)": 135.0,
        "Installation Type": "Onshore",
        "Status": "operating",
        "Start_year": 2009.0,
        "Province": "Osmaniye",
        "Latitude": 37.1679,
        "Longitude": 36.6644
      }
    },
    {
      "type": "Feature",
      "geometry": {
        "type": "Point",
        "coordinates": [30.288, 41.1344]
      },
      "properties": {
        "Name": "Gökdag wind farm",
        "Phase Name": "--",
        "Capacity (MW)": 10.0,
        "Installation Type": "Onshore",
        "Status": "operating",
        "Start_year": 2018.0,
        "Province": "Kocaeli",
        "Latitude": 41.1344,
        "Longitude": 30.288
      }
    },
    {
      "type": "Feature",
      "geometry": {
        "type": "Point",
        "coordinates": [28.8702, 40.562]
      },
      "properties": {
        "Name": "Göktepe wind farm",
        "Phase Name": "--",
        "Capacity (MW)": 121.1,
        "Installation Type": "Onshore",
        "Status": "operating",
        "Start_year": "NULL",
        "Province": "Yalova",
        "Latitude": 40.562,
        "Longitude": 28.8702
      }
    },
    {
      "type": "Feature",
      "geometry": {
        "type": "Point",
        "coordinates": [27.1765, 38.4537]
      },
      "properties": {
        "Name": "Gökzirve wind farm",
        "Phase Name": "--",
        "Capacity (MW)": 25.2,
        "Installation Type": "Onshore",
        "Status": "operating",
        "Start_year": 2022.0,
        "Province": "NULL",
        "Latitude": 38.4537,
        "Longitude": 27.1765
      }
    },
    {
      "type": "Feature",
      "geometry": {
        "type": "Point",
        "coordinates": [27.4711, 40.0679]
      },
      "properties": {
        "Name": "Gonen wind farm",
        "Phase Name": "--",
        "Capacity (MW)": 12.0,
        "Installation Type": "Onshore",
        "Status": "shelved - inferred 2 y",
        "Start_year": "NULL",
        "Province": "NULL",
        "Latitude": 40.0679,
        "Longitude": 27.4711
      }
    },
    {
      "type": "Feature",
      "geometry": {
        "type": "Point",
        "coordinates": [27.536, 37.1106]
      },
      "properties": {
        "Name": "Güllük wind farm",
        "Phase Name": "--",
        "Capacity (MW)": 33.0,
        "Installation Type": "Onshore",
        "Status": "cancelled",
        "Start_year": "NULL",
        "Province": "Mugla",
        "Latitude": 37.1106,
        "Longitude": 27.536
      }
    },
    {
      "type": "Feature",
      "geometry": {
        "type": "Point",
        "coordinates": [26.4472, 39.9788]
      },
      "properties": {
        "Name": "Gülpir wind farm",
        "Phase Name": 1,
        "Capacity (MW)": 10.0,
        "Installation Type": "Onshore",
        "Status": "operating",
        "Start_year": 2019.0,
        "Province": "Çanakkale",
        "Latitude": 39.9788,
        "Longitude": 26.4472
      }
    },
    {
      "type": "Feature",
      "geometry": {
        "type": "Point",
        "coordinates": [26.4472, 39.9788]
      },
      "properties": {
        "Name": "Gülpir wind farm",
        "Phase Name": 2,
        "Capacity (MW)": 24.0,
        "Installation Type": "Onshore",
        "Status": "operating",
        "Start_year": 2020.0,
        "Province": "Çanakkale",
        "Latitude": 39.9788,
        "Longitude": 26.4472
      }
    },
    {
      "type": "Feature",
      "geometry": {
        "type": "Point",
        "coordinates": [38.3641, 38.4202]
      },
      "properties": {
        "Name": "Gülümuşağı wind farm",
        "Phase Name": "--",
        "Capacity (MW)": 32.0,
        "Installation Type": "Onshore",
        "Status": "cancelled",
        "Start_year": "NULL",
        "Province": "Malatya",
        "Latitude": 38.4202,
        "Longitude": 38.3641
      }
    },
    {
      "type": "Feature",
      "geometry": {
        "type": "Point",
        "coordinates": [42.8109, 40.1853]
      },
      "properties": {
        "Name": "Gümüstepe wind farm",
        "Phase Name": "--",
        "Capacity (MW)": 20.0,
        "Installation Type": "Onshore",
        "Status": "shelved - inferred 2 y",
        "Start_year": "NULL",
        "Province": "Kars",
        "Latitude": 40.1853,
        "Longitude": 42.8109
      }
    },
    {
      "type": "Feature",
      "geometry": {
        "type": "Point",
        "coordinates": [28.5378, 40.3026]
      },
      "properties": {
        "Name": "Güney wind farm",
        "Phase Name": 1,
        "Capacity (MW)": 74.0,
        "Installation Type": "Onshore",
        "Status": "operating",
        "Start_year": "NULL",
        "Province": "Bursa",
        "Latitude": 40.3026,
        "Longitude": 28.5378
      }
    },
    {
      "type": "Feature",
      "geometry": {
        "type": "Point",
        "coordinates": [26.836, 39.8904]
      },
      "properties": {
        "Name": "Güneyli (Yel) wind farm",
        "Phase Name": "--",
        "Capacity (MW)": 32.0,
        "Installation Type": "Onshore",
        "Status": "cancelled",
        "Start_year": "NULL",
        "Province": "Çanakkale",
        "Latitude": 39.8904,
        "Longitude": 26.836
      }
    },
    {
      "type": "Feature",
      "geometry": {
        "type": "Point",
        "coordinates": [37.3126, 38.8871]
      },
      "properties": {
        "Name": "Gürün wind farm",
        "Phase Name": "--",
        "Capacity (MW)": 90.0,
        "Installation Type": "Onshore",
        "Status": "pre-construction",
        "Start_year": 2026.0,
        "Province": "Sivas",
        "Latitude": 38.8871,
        "Longitude": 37.3126
      }
    },
    {
      "type": "Feature",
      "geometry": {
        "type": "Point",
        "coordinates": [28.0102, 39.9735]
      },
      "properties": {
        "Name": "Güydin wind farm",
        "Phase Name": 1,
        "Capacity (MW)": 12.0,
        "Installation Type": "Onshore",
        "Status": "operating",
        "Start_year": 2012.0,
        "Province": "Balıkesir",
        "Latitude": 39.9735,
        "Longitude": 28.0102
      }
    },
    {
      "type": "Feature",
      "geometry": {
        "type": "Point",
        "coordinates": [28.3376, 41.4095]
      },
      "properties": {
        "Name": "Hacı Bey wind farm",
        "Phase Name": "--",
        "Capacity (MW)": 68.8,
        "Installation Type": "Onshore",
        "Status": "operating",
        "Start_year": "NULL",
        "Province": "NULL",
        "Latitude": 41.4095,
        "Longitude": 28.3376
      }
    },
    {
      "type": "Feature",
      "geometry": {
        "type": "Point",
        "coordinates": [35.0355, 41.6655]
      },
      "properties": {
        "Name": "Hamsi wind farm",
        "Phase Name": "--",
        "Capacity (MW)": 35.0,
        "Installation Type": "Onshore",
        "Status": "operating",
        "Start_year": 2021.0,
        "Province": "Sinop",
        "Latitude": 41.6655,
        "Longitude": 35.0355
      }
    },
    {
      "type": "Feature",
      "geometry": {
        "type": "Point",
        "coordinates": [26.677, 41.9603]
      },
      "properties": {
        "Name": "Hamzabeyli wind farm",
        "Phase Name": "--",
        "Capacity (MW)": 25.2,
        "Installation Type": "Onshore",
        "Status": "operating",
        "Start_year": "NULL",
        "Province": "NULL",
        "Latitude": 41.9603,
        "Longitude": 26.677
      }
    },
    {
      "type": "Feature",
      "geometry": {
        "type": "Point",
        "coordinates": [28.5298, 40.3452]
      },
      "properties": {
        "Name": "Harmanlik wind farm",
        "Phase Name": "--",
        "Capacity (MW)": 55.0,
        "Installation Type": "Onshore",
        "Status": "operating",
        "Start_year": 2015.0,
        "Province": "Bursa",
        "Latitude": 40.3452,
        "Longitude": 28.5298
      }
    },
    {
      "type": "Feature",
      "geometry": {
        "type": "Point",
        "coordinates": [36.5798, 37.1072]
      },
      "properties": {
        "Name": "Hasanbeyli wind farm",
        "Phase Name": "--",
        "Capacity (MW)": 50.0,
        "Installation Type": "Onshore",
        "Status": "operating",
        "Start_year": 2014.0,
        "Province": "Osmaniye",
        "Latitude": 37.1072,
        "Longitude": 36.5798
      }
    },
    {
      "type": "Feature",
      "geometry": {
        "type": "Point",
        "coordinates": [26.3766, 40.0165]
      },
      "properties": {
        "Name": "Hasanoba wind farm",
        "Phase Name": "--",
        "Capacity (MW)": 51.0,
        "Installation Type": "Onshore",
        "Status": "operating",
        "Start_year": 2019.0,
        "Province": "Çanakkale",
        "Latitude": 40.0165,
        "Longitude": 26.3766
      }
    },
    {
      "type": "Feature",
      "geometry": {
        "type": "Point",
        "coordinates": [27.1398, 39.5198]
      },
      "properties": {
        "Name": "Havran wind farm",
        "Phase Name": 1,
        "Capacity (MW)": 16.0,
        "Installation Type": "Onshore",
        "Status": "operating",
        "Start_year": 2011.0,
        "Province": "Balıkesir",
        "Latitude": 39.5198,
        "Longitude": 27.1398
      }
    },
    {
      "type": "Feature",
      "geometry": {
        "type": "Point",
        "coordinates": [27.1398, 39.5198]
      },
      "properties": {
        "Name": "Havran wind farm",
        "Phase Name": 2,
        "Capacity (MW)": 12.0,
        "Installation Type": "Onshore",
        "Status": "operating",
        "Start_year": 2019.0,
        "Province": "Balıkesir",
        "Latitude": 39.5198,
        "Longitude": 27.1398
      }
    },
    {
      "type": "Feature",
      "geometry": {
        "type": "Point",
        "coordinates": [35.5466, 40.9601]
      },
      "properties": {
        "Name": "Havza wind farm",
        "Phase Name": 1,
        "Capacity (MW)": 14.0,
        "Installation Type": "Onshore",
        "Status": "operating",
        "Start_year": 2019.0,
        "Province": "Samsun",
        "Latitude": 40.9601,
        "Longitude": 35.5466
      }
    },
    {
      "type": "Feature",
      "geometry": {
        "type": "Point",
        "coordinates": [35.5466, 40.9601]
      },
      "properties": {
        "Name": "Havza wind farm",
        "Phase Name": 2,
        "Capacity (MW)": 42.0,
        "Installation Type": "Onshore",
        "Status": "operating",
        "Start_year": 2020.0,
        "Province": "Samsun",
        "Latitude": 40.9601,
        "Longitude": 35.5466
      }
    },
    {
      "type": "Feature",
      "geometry": {
        "type": "Point",
        "coordinates": [27.1617, 40.4046]
      },
      "properties": {
        "Name": "İçdaş Biga wind farm",
        "Phase Name": "--",
        "Capacity (MW)": 60.8,
        "Installation Type": "Onshore",
        "Status": "operating",
        "Start_year": "NULL",
        "Province": "NULL",
        "Latitude": 40.4046,
        "Longitude": 27.1617
      }
    },
    {
      "type": "Feature",
      "geometry": {
        "type": "Point",
        "coordinates": [26.3618, 39.6044]
      },
      "properties": {
        "Name": "Ilgardere wind farm",
        "Phase Name": 1,
        "Capacity (MW)": 11.0,
        "Installation Type": "Onshore",
        "Status": "operating",
        "Start_year": "NULL",
        "Province": "Çanakkale",
        "Latitude": 39.6044,
        "Longitude": 26.3618
      }
    },
    {
      "type": "Feature",
      "geometry": {
        "type": "Point",
        "coordinates": [26.3618, 39.6044]
      },
      "properties": {
        "Name": "Ilgardere wind farm",
        "Phase Name": 2,
        "Capacity (MW)": 40.0,
        "Installation Type": "Onshore",
        "Status": "pre-construction",
        "Start_year": "NULL",
        "Province": "Çanakkale",
        "Latitude": 39.6044,
        "Longitude": 26.3618
      }
    },
    {
      "type": "Feature",
      "geometry": {
        "type": "Point",
        "coordinates": [30.3287, 38.0905]
      },
      "properties": {
        "Name": "Incesu wind farm",
        "Phase Name": 1,
        "Capacity (MW)": 13.0,
        "Installation Type": "Onshore",
        "Status": "operating",
        "Start_year": 2014.0,
        "Province": "Afyonkarahisar",
        "Latitude": 38.0905,
        "Longitude": 30.3287
      }
    },
    {
      "type": "Feature",
      "geometry": {
        "type": "Point",
        "coordinates": [30.3287, 38.0905]
      },
      "properties": {
        "Name": "Incesu wind farm",
        "Phase Name": 2,
        "Capacity (MW)": 16.0,
        "Installation Type": "Onshore",
        "Status": "operating",
        "Start_year": 2017.0,
        "Province": "Afyonkarahisar",
        "Latitude": 38.0905,
        "Longitude": 30.3287
      }
    },
    {
      "type": "Feature",
      "geometry": {
        "type": "Point",
        "coordinates": [26.3926, 40.0401]
      },
      "properties": {
        "Name": "Intepe wind farm",
        "Phase Name": 1,
        "Capacity (MW)": 23.0,
        "Installation Type": "Onshore",
        "Status": "operating",
        "Start_year": 2007.0,
        "Province": "Çanakkale",
        "Latitude": 40.0401,
        "Longitude": 26.3926
      }
    },
    {
      "type": "Feature",
      "geometry": {
        "type": "Point",
        "coordinates": [26.3926, 40.0401]
      },
      "properties": {
        "Name": "Intepe wind farm",
        "Phase Name": 2,
        "Capacity (MW)": 16.0,
        "Installation Type": "Onshore",
        "Status": "operating",
        "Start_year": 2016.0,
        "Province": "Çanakkale",
        "Latitude": 40.0401,
        "Longitude": 26.3926
      }
    },
    {
      "type": "Feature",
      "geometry": {
        "type": "Point",
        "coordinates": [43.6843, 39.6257]
      },
      "properties": {
        "Name": "İpektepe wind farm",
        "Phase Name": "--",
        "Capacity (MW)": 24.0,
        "Installation Type": "Onshore",
        "Status": "operating",
        "Start_year": "NULL",
        "Province": "NULL",
        "Latitude": 39.6257,
        "Longitude": 43.6843
      }
    },
    {
      "type": "Feature",
      "geometry": {
        "type": "Point",
        "coordinates": [29.4134, 39.0389]
      },
      "properties": {
        "Name": "Işıklar wind farm",
        "Phase Name": "--",
        "Capacity (MW)": 50.0,
        "Installation Type": "Onshore",
        "Status": "operating",
        "Start_year": 2024.0,
        "Province": "Kütahya",
        "Latitude": 39.0389,
        "Longitude": 29.4134
      }
    },
    {
      "type": "Feature",
      "geometry": {
        "type": "Point",
        "coordinates": [29.0706, 41.1232]
      },
      "properties": {
        "Name": "Istanbul (Caba) wind farm",
        "Phase Name": 1,
        "Capacity (MW)": 24.0,
        "Installation Type": "Onshore",
        "Status": "operating",
        "Start_year": 2021.0,
        "Province": "Istanbul",
        "Latitude": 41.1232,
        "Longitude": 29.0706
      }
    },
    {
      "type": "Feature",
      "geometry": {
        "type": "Point",
        "coordinates": [29.0706, 41.1232]
      },
      "properties": {
        "Name": "Istanbul (Caba) wind farm",
        "Phase Name": 2,
        "Capacity (MW)": 187.0,
        "Installation Type": "Onshore",
        "Status": "operating",
        "Start_year": 2021.0,
        "Province": "Istanbul",
        "Latitude": 41.1232,
        "Longitude": 29.0706
      }
    },
    {
      "type": "Feature",
      "geometry": {
        "type": "Point",
        "coordinates": [28.2652, 41.4486]
      },
      "properties": {
        "Name": "Istanbul wind farm",
        "Phase Name": 1,
        "Capacity (MW)": 200.0,
        "Installation Type": "Onshore",
        "Status": "operating",
        "Start_year": 2021.0,
        "Province": "Istanbul",
        "Latitude": 41.4486,
        "Longitude": 28.2652
      }
    },
    {
      "type": "Feature",
      "geometry": {
        "type": "Point",
        "coordinates": [28.2652, 41.4486]
      },
      "properties": {
        "Name": "Istanbul wind farm",
        "Phase Name": 2,
        "Capacity (MW)": 84.0,
        "Installation Type": "Onshore",
        "Status": "pre-construction",
        "Start_year": "NULL",
        "Province": "Istanbul",
        "Latitude": 41.4486,
        "Longitude": 28.2652
      }
    },
    {
      "type": "Feature",
      "geometry": {
        "type": "Point",
        "coordinates": [27.7223, 40.0902]
      },
      "properties": {
        "Name": "Kalfaköy wind farm",
        "Phase Name": "--",
        "Capacity (MW)": 10.0,
        "Installation Type": "Onshore",
        "Status": "operating",
        "Start_year": 2018.0,
        "Province": "Balıkesir",
        "Latitude": 40.0902,
        "Longitude": 27.7223
      }
    },
    {
      "type": "Feature",
      "geometry": {
        "type": "Point",
        "coordinates": [30.0451, 41.1152]
      },
      "properties": {
        "Name": "Kandira wind farm",
        "Phase Name": "--",
        "Capacity (MW)": 49.0,
        "Installation Type": "Onshore",
        "Status": "operating",
        "Start_year": 2021.0,
        "Province": "Kocaeli",
        "Latitude": 41.1152,
        "Longitude": 30.0451
      }
    },
    {
      "type": "Feature",
      "geometry": {
        "type": "Point",
        "coordinates": [37.2745, 39.0297]
      },
      "properties": {
        "Name": "Kangal wind farm",
        "Phase Name": 1,
        "Capacity (MW)": 44.0,
        "Installation Type": "Onshore",
        "Status": "operating",
        "Start_year": 2014.0,
        "Province": "Sivas",
        "Latitude": 39.0297,
        "Longitude": 37.2745
      }
    },
    {
      "type": "Feature",
      "geometry": {
        "type": "Point",
        "coordinates": [37.2745, 39.0297]
      },
      "properties": {
        "Name": "Kangal wind farm",
        "Phase Name": 2,
        "Capacity (MW)": 34.0,
        "Installation Type": "Onshore",
        "Status": "operating",
        "Start_year": 2015.0,
        "Province": "Sivas",
        "Latitude": 39.0297,
        "Longitude": 37.2745
      }
    },
    {
      "type": "Feature",
      "geometry": {
        "type": "Point",
        "coordinates": [37.2745, 39.0297]
      },
      "properties": {
        "Name": "Kangal wind farm",
        "Phase Name": 3,
        "Capacity (MW)": 50.0,
        "Installation Type": "Onshore",
        "Status": "operating",
        "Start_year": 2017.0,
        "Province": "Sivas",
        "Latitude": 39.0297,
        "Longitude": 37.2745
      }
    },
    {
      "type": "Feature",
      "geometry": {
        "type": "Point",
        "coordinates": [26.8785, 41.1261]
      },
      "properties": {
        "Name": "Kanije wind farm",
        "Phase Name": "--",
        "Capacity (MW)": 64.0,
        "Installation Type": "Onshore",
        "Status": "operating",
        "Start_year": 2016.0,
        "Province": "Edirne",
        "Latitude": 41.1261,
        "Longitude": 26.8785
      }
    },
    {
      "type": "Feature",
      "geometry": {
        "type": "Point",
        "coordinates": [27.7046, 40.4975]
      },
      "properties": {
        "Name": "Kapidag wind farm",
        "Phase Name": 1,
        "Capacity (MW)": 24.0,
        "Installation Type": "Onshore",
        "Status": "operating",
        "Start_year": 2013.0,
        "Province": "Balıkesir",
        "Latitude": 40.4975,
        "Longitude": 27.7046
      }
    },
    {
      "type": "Feature",
      "geometry": {
        "type": "Point",
        "coordinates": [27.7046, 40.4975]
      },
      "properties": {
        "Name": "Kapidag wind farm",
        "Phase Name": 3,
        "Capacity (MW)": 14.0,
        "Installation Type": "Onshore",
        "Status": "shelved - inferred 2 y",
        "Start_year": "NULL",
        "Province": "Balıkesir",
        "Latitude": 40.4975,
        "Longitude": 27.7046
      }
    },
    {
      "type": "Feature",
      "geometry": {
        "type": "Point",
        "coordinates": [26.4434, 38.6428]
      },
      "properties": {
        "Name": "Karaburun wind farm (Türkiye)",
        "Phase Name": 2,
        "Capacity (MW)": 104.0,
        "Installation Type": "Onshore",
        "Status": "operating",
        "Start_year": 2019.0,
        "Province": "Izmir",
        "Latitude": 38.6428,
        "Longitude": 26.4434
      }
    },
    {
      "type": "Feature",
      "geometry": {
        "type": "Point",
        "coordinates": [26.4434, 38.6428]
      },
      "properties": {
        "Name": "Karaburun wind farm (Türkiye)",
        "Phase Name": 3,
        "Capacity (MW)": 28.0,
        "Installation Type": "Onshore",
        "Status": "operating",
        "Start_year": 2020.0,
        "Province": "Izmir",
        "Latitude": 38.6428,
        "Longitude": 26.4434
      }
    },
    {
      "type": "Feature",
      "geometry": {
        "type": "Point",
        "coordinates": [26.4434, 38.6428]
      },
      "properties": {
        "Name": "Karaburun wind farm (Türkiye)",
        "Phase Name": "1A",
        "Capacity (MW)": 60.0,
        "Installation Type": "Onshore",
        "Status": "operating",
        "Start_year": 2013.0,
        "Province": "Izmir",
        "Latitude": 38.6428,
        "Longitude": 26.4434
      }
    },
    {
      "type": "Feature",
      "geometry": {
        "type": "Point",
        "coordinates": [26.4434, 38.6428]
      },
      "properties": {
        "Name": "Karaburun wind farm (Türkiye)",
        "Phase Name": "1B",
        "Capacity (MW)": 60.0,
        "Installation Type": "Onshore",
        "Status": "operating",
        "Start_year": 2013.0,
        "Province": "Izmir",
        "Latitude": 38.6428,
        "Longitude": 26.4434
      }
    },
    {
      "type": "Feature",
      "geometry": {
        "type": "Point",
        "coordinates": [28.3644, 40.2994]
      },
      "properties": {
        "Name": "Karacabey wind farm",
        "Phase Name": "--",
        "Capacity (MW)": 30.0,
        "Installation Type": "Onshore",
        "Status": "operating",
        "Start_year": 2016.0,
        "Province": "Bursa",
        "Latitude": 40.2994,
        "Longitude": 28.3644
      }
    },
    {
      "type": "Feature",
      "geometry": {
        "type": "Point",
        "coordinates": [36.9967, 39.9428]
      },
      "properties": {
        "Name": "Karacayir wind farm",
        "Phase Name": "--",
        "Capacity (MW)": 13.0,
        "Installation Type": "Onshore",
        "Status": "operating",
        "Start_year": 2016.0,
        "Province": "Sivas",
        "Latitude": 39.9428,
        "Longitude": 36.9967
      }
    },
    {
      "type": "Feature",
      "geometry": {
        "type": "Point",
        "coordinates": [26.2912, 38.3069]
      },
      "properties": {
        "Name": "Karadag (Boyut) wind farm",
        "Phase Name": "--",
        "Capacity (MW)": 18.0,
        "Installation Type": "Onshore",
        "Status": "operating",
        "Start_year": 2016.0,
        "Province": "Izmir",
        "Latitude": 38.3069,
        "Longitude": 26.2912
      }
    },
    {
      "type": "Feature",
      "geometry": {
        "type": "Point",
        "coordinates": [26.9176, 38.7581]
      },
      "properties": {
        "Name": "Karadag (Gama) wind farm",
        "Phase Name": "--",
        "Capacity (MW)": 10.0,
        "Installation Type": "Onshore",
        "Status": "operating",
        "Start_year": 2012.0,
        "Province": "Izmir",
        "Latitude": 38.7581,
        "Longitude": 26.9176
      }
    },
    {
      "type": "Feature",
      "geometry": {
        "type": "Point",
        "coordinates": [27.4852, 41.8933]
      },
      "properties": {
        "Name": "Karadere wind farm",
        "Phase Name": "--",
        "Capacity (MW)": 16.0,
        "Installation Type": "Onshore",
        "Status": "operating",
        "Start_year": 2014.0,
        "Province": "Kırklareli",
        "Latitude": 41.8933,
        "Longitude": 27.4852
      }
    },
    {
      "type": "Feature",
      "geometry": {
        "type": "Point",
        "coordinates": [27.8216, 39.1007]
      },
      "properties": {
        "Name": "Karakurt wind farm",
        "Phase Name": 1,
        "Capacity (MW)": 11.0,
        "Installation Type": "Onshore",
        "Status": "operating",
        "Start_year": 2007.0,
        "Province": "Manisa",
        "Latitude": 39.1007,
        "Longitude": 27.8216
      }
    },
    {
      "type": "Feature",
      "geometry": {
        "type": "Point",
        "coordinates": [27.8216, 39.1007]
      },
      "properties": {
        "Name": "Karakurt wind farm",
        "Phase Name": 2,
        "Capacity (MW)": 12.0,
        "Installation Type": "Onshore",
        "Status": "operating",
        "Start_year": "NULL",
        "Province": "Manisa",
        "Latitude": 39.1007,
        "Longitude": 27.8216
      }
    },
    {
      "type": "Feature",
      "geometry": {
        "type": "Point",
        "coordinates": [33.5546, 36.9773]
      },
      "properties": {
        "Name": "Karaman wind farm",
        "Phase Name": 1,
        "Capacity (MW)": 46.8,
        "Installation Type": "Onshore",
        "Status": "operating",
        "Start_year": "NULL",
        "Province": "NULL",
        "Latitude": 36.9773,
        "Longitude": 33.5546
      }
    },
    {
      "type": "Feature",
      "geometry": {
        "type": "Point",
        "coordinates": [33.5546, 36.9773]
      },
      "properties": {
        "Name": "Karaman wind farm",
        "Phase Name": 2,
        "Capacity (MW)": 21.2,
        "Installation Type": "Onshore",
        "Status": "pre-construction",
        "Start_year": "NULL",
        "Province": "NULL",
        "Latitude": 36.9773,
        "Longitude": 33.5546
      }
    },
    {
      "type": "Feature",
      "geometry": {
        "type": "Point",
        "coordinates": [29.685, 40.6504]
      },
      "properties": {
        "Name": "Karamürsel wind farm",
        "Phase Name": 1,
        "Capacity (MW)": 15.6,
        "Installation Type": "Onshore",
        "Status": "operating",
        "Start_year": "NULL",
        "Province": "NULL",
        "Latitude": 40.6504,
        "Longitude": 29.685
      }
    },
    {
      "type": "Feature",
      "geometry": {
        "type": "Point",
        "coordinates": [29.685, 40.6504]
      },
      "properties": {
        "Name": "Karamürsel wind farm",
        "Phase Name": 2,
        "Capacity (MW)": 14.4,
        "Installation Type": "Onshore",
        "Status": "pre-construction",
        "Start_year": "NULL",
        "Province": "NULL",
        "Latitude": 40.6504,
        "Longitude": 29.685
      }
    },
    {
      "type": "Feature",
      "geometry": {
        "type": "Point",
        "coordinates": [29.7948, 40.6514]
      },
      "properties": {
        "Name": "Karanfil wind farm",
        "Phase Name": "--",
        "Capacity (MW)": 40.0,
        "Installation Type": "Onshore",
        "Status": "cancelled - inferred 4 y",
        "Start_year": "NULL",
        "Province": "Kocaeli",
        "Latitude": 40.6514,
        "Longitude": 29.7948
      }
    },
    {
      "type": "Feature",
      "geometry": {
        "type": "Point",
        "coordinates": [27.019, 40.741]
      },
      "properties": {
        "Name": "Karatepe wind farm",
        "Phase Name": "--",
        "Capacity (MW)": 14.0,
        "Installation Type": "Onshore",
        "Status": "operating",
        "Start_year": "NULL",
        "Province": "Tekirdag",
        "Latitude": 40.741,
        "Longitude": 27.019
      }
    },
    {
      "type": "Feature",
      "geometry": {
        "type": "Point",
        "coordinates": [30.1077, 36.4581]
      },
      "properties": {
        "Name": "Karlitepe wind farm",
        "Phase Name": "--",
        "Capacity (MW)": 35.0,
        "Installation Type": "Onshore",
        "Status": "operating",
        "Start_year": 2020.0,
        "Province": "Hatay",
        "Latitude": 36.4581,
        "Longitude": 30.1077
      }
    },
    {
      "type": "Feature",
      "geometry": {
        "type": "Point",
        "coordinates": [27.6544, 37.0564]
      },
      "properties": {
        "Name": "Karova wind farm",
        "Phase Name": 1,
        "Capacity (MW)": 20.0,
        "Installation Type": "Onshore",
        "Status": "operating",
        "Start_year": 2018.0,
        "Province": "Mugla",
        "Latitude": 37.0564,
        "Longitude": 27.6544
      }
    },
    {
      "type": "Feature",
      "geometry": {
        "type": "Point",
        "coordinates": [27.6544, 37.0564]
      },
      "properties": {
        "Name": "Karova wind farm",
        "Phase Name": 2,
        "Capacity (MW)": 10.0,
        "Installation Type": "Onshore",
        "Status": "operating",
        "Start_year": 2018.0,
        "Province": "Mugla",
        "Latitude": 37.0564,
        "Longitude": 27.6544
      }
    },
    {
      "type": "Feature",
      "geometry": {
        "type": "Point",
        "coordinates": [30.4271, 39.9343]
      },
      "properties": {
        "Name": "Kartal wind farm",
        "Phase Name": 1,
        "Capacity (MW)": 39.0,
        "Installation Type": "Onshore",
        "Status": "operating",
        "Start_year": "NULL",
        "Province": "Eskisehir",
        "Latitude": 39.9343,
        "Longitude": 30.4271
      }
    },
    {
      "type": "Feature",
      "geometry": {
        "type": "Point",
        "coordinates": [30.4271, 39.9343]
      },
      "properties": {
        "Name": "Kartal wind farm",
        "Phase Name": 2,
        "Capacity (MW)": 50.0,
        "Installation Type": "Onshore",
        "Status": "pre-construction",
        "Start_year": "NULL",
        "Province": "Eskisehir",
        "Latitude": 39.9343,
        "Longitude": 30.4271
      }
    },
    {
      "type": "Feature",
      "geometry": {
        "type": "Point",
        "coordinates": [36.9296, 37.1574]
      },
      "properties": {
        "Name": "Kartaldagi wind farm",
        "Phase Name": "--",
        "Capacity (MW)": 66.0,
        "Installation Type": "Onshore",
        "Status": "operating",
        "Start_year": 2017.0,
        "Province": "Gaziantep",
        "Latitude": 37.1574,
        "Longitude": 36.9296
      }
    },
    {
      "type": "Feature",
      "geometry": {
        "type": "Point",
        "coordinates": [27.8311, 39.721]
      },
      "properties": {
        "Name": "Kavakli wind farm",
        "Phase Name": "--",
        "Capacity (MW)": 53.0,
        "Installation Type": "Onshore",
        "Status": "operating",
        "Start_year": 2014.0,
        "Province": "Balıkesir",
        "Latitude": 39.721,
        "Longitude": 27.8311
      }
    },
    {
      "type": "Feature",
      "geometry": {
        "type": "Point",
        "coordinates": [35.4561, 40.8734]
      },
      "properties": {
        "Name": "Kayadüzü wind farm",
        "Phase Name": "--",
        "Capacity (MW)": 82.0,
        "Installation Type": "Onshore",
        "Status": "operating",
        "Start_year": "NULL",
        "Province": "Amasya",
        "Latitude": 40.8734,
        "Longitude": 35.4561
      }
    },
    {
      "type": "Feature",
      "geometry": {
        "type": "Point",
        "coordinates": [28.0512, 39.9614]
      },
      "properties": {
        "Name": "Keltepe wind farm",
        "Phase Name": 1,
        "Capacity (MW)": 21.0,
        "Installation Type": "Onshore",
        "Status": "operating",
        "Start_year": 2009.0,
        "Province": "Balıkesir",
        "Latitude": 39.9614,
        "Longitude": 28.0512
      }
    },
    {
      "type": "Feature",
      "geometry": {
        "type": "Point",
        "coordinates": [28.6922, 41.2379]
      },